[
  {
    "id": "1",
    "name": "Opebi",
    "address": "15/17, Olajuwon House, Opebi Road, Ikeja, Lagos",
    "lat": "6.5949063",
    "lng": "3.3570565",
    "category": "Shop",
    "date": "00/00/00",
    "city": "Lagos"
  },
  {
    "id": "2",
    "name": "Motorways",
    "address": "Suite 18, 1St Floor, 1, Motorways Avenue, Opp. Seven-Up Factory, Alausa, Ikeja, Lagos",
    "lat": "6.5995036",
    "lng": "3.3765276",
    "category": "Shop",
    "date": "00/00/00",
    "city": "Lagos"
  },
  {
    "id": "3",
    "name": "Surulere",
    "address": "122, Bode Thomas Street, Surulere",
    "lat": "6.4889558",
    "lng": "3.3587868",
    "category": "Shop",
    "date": "00/00/00",
    "city": "Lagos"
  },
  {
    "id": "4",
    "name": "Ecenter",
    "address": "E-Centre Mall, 3Rd Floor, 1-11 Commercial Avenue, Yaba, Lagos",
    "lat": "6.5063473",
    "lng": "3.374511",
    "category": "Shop",
    "date": "00/00/00",
    "city": "Lagos"
  },
  {
    "id": "5",
    "name": "Ogba",
    "address": "Suite 45, Ogba Shopping Complex, Ijaiye Road, Ogba, Lagos",
    "lat": "6.6314259",
    "lng": "3.3405103",
    "category": "Shop",
    "date": "00/00/00",
    "city": "Lagos"
  },
  {
    "id": "6",
    "name": "Ikorodu",
    "address": "132, Iyaniwura House, Lagos Road, Ikorodu, Lagos",
    "lat": "6.6250573",
    "lng": "3.4913889",
    "category": "Shop",
    "date": "00/00/00",
    "city": "Lagos"
  },
  {
    "id": "7",
    "name": "Festac",
    "address": "Shop 11, Gacoun Plaza, Opp. K Close, Road 23, Festac, Lagos",
    "lat": "6.4701221",
    "lng": "3.2741199",
    "category": "Shop",
    "date": "00/00/00",
    "city": "Lagos"
  },
  {
    "id": "8",
    "name": "Ilupeju",
    "address": "Ff1, 1St Floor, Light Plaza, 32, Association Avenue, Ilupeju, Lagos",
    "lat": "6.547208",
    "lng": "3.3643529",
    "category": "Shop",
    "date": "00/00/00",
    "city": "Lagos"
  },
  {
    "id": "9",
    "name": "Apapa",
    "address": "Shop 41,First Floor,Left Wing,Apapa Shopping Mall.Parklane Apapa",
    "lat": "6.4489396",
    "lng": "3.3597244",
    "category": "Shop",
    "date": "00/00/00",
    "city": "Lagos"
  },
  {
    "id": "10",
    "name": "Lekki",
    "address": "Block 4A, Samit Plaza, Admiralty Way, Lekki Phase I, Lekki, Lagos",
    "lat": "6.4480448",
    "lng": "3.4745899",
    "category": "Shop",
    "date": "00/00/00",
    "city": "Lagos"
  },
  {
    "id": "11",
    "name": "Victoria Island",
    "address": "Plot 231 (49) Adeola Odeku Street, Victoria Island, Lagos",
    "lat": "6.4299482",
    "lng": "3.4106991",
    "category": "Shop",
    "date": "00/00/00",
    "city": "Lagos"
  },
  {
    "id": "12",
    "name": "Lagos MMA2 ",
    "address": "First Floor, Departure Area, Murtala Mohammad Airport Terminal 2, Lagos",
    "lat": "6.5847425",
    "lng": "3.3327627",
    "category": "Shop",
    "date": "00/00/00",
    "city": "Lagos"
  },
  {
    "id": "13",
    "name": "Lagos Abuleegba",
    "address": "Shop 28, Crossway Shopping Complex, First Floor, No, 3, Charity Road, Abule-Egba, Lagos",
    "lat": "6.650231",
    "lng": "3.3091273",
    "category": "Shop",
    "date": "00/00/00",
    "city": "Lagos"
  },
  {
    "id": "14",
    "name": "Computer Village",
    "address": "First Floor, No. 9, Simbiat Abiola Road(Medical Road), Ikeja, Lagos",
    "lat": "6.6066801",
    "lng": "3.3496623",
    "category": "Shop",
    "date": "00/00/00",
    "city": "Lagos"
  },
  {
    "id": "15",
    "name": "Slot LG Saka Tinubu",
    "address": "Slot Saka Tinubu",
    "lat": "6.4291218",
    "lng": "3.424216",
    "category": "Shop",
    "date": "00/00/00",
    "city": "Lagos"
  },
  {
    "id": "16",
    "name": "Slotlgikjshoprite",
    "address": "Ikeja City Mall , Alausa Ikeja",
    "lat": "6.6141825",
    "lng": "3.3582994",
    "category": "Shop",
    "date": "00/00/00",
    "city": "Lagos"
  },
  {
    "id": "17",
    "name": "Palms Lekki",
    "address": "1St Floor, Palms Lekki,  Opposite Genesis Cinema",
    "lat": "6.4356733",
    "lng": "3.4509429",
    "category": "Shop",
    "date": "00/00/00",
    "city": "Lagos"
  },
  {
    "id": "18",
    "name": "Total Pump Onigbongbo",
    "address": "Mobolaji Bank Anthony Way, Ikeja Gra, Lagos",
    "lat": "6.5863524",
    "lng": "3.3574795",
    "category": "Shop",
    "date": "00/00/00",
    "city": "Lagos"
  },
  {
    "id": "19",
    "name": "Justrite_Ikorodu",
    "address": "Klm 4, Idiroko Road, Ogolonto Bus Stop, Ikorodu",
    "lat": "6.6401727",
    "lng": "2.7530936",
    "category": "Shop",
    "date": "00/00/00",
    "city": "Lagos"
  },
  {
    "id": "20",
    "name": "Justrite_Ojoduberger",
    "address": "Kosoko Street, Ojodu Berger, Ojodu, Lagos",
    "lat": "6.6422568",
    "lng": "3.3690495",
    "category": "Shop",
    "date": "00/00/00",
    "city": "Lagos"
  },
  {
    "id": "21",
    "name": "Renee Supermarket",
    "address": "1 Cameroon Road, Off Gerard Avenue,ikoyi,lagos",
    "lat": "6.4407237",
    "lng": "3.3689642",
    "category": "Shop",
    "date": "00/00/00",
    "city": "Lagos"
  },
  {
    "id": "22",
    "name": "Justrite_Ota",
    "address": "Kilometer 4, Idiroko Road, Sango Ota",
    "lat": "6.6847174",
    "lng": "3.2171698",
    "category": "Shop",
    "date": "00/00/00",
    "city": "Lagos"
  },
  {
    "id": "23",
    "name": "Justrite_Iyanaipaja",
    "address": "55 ,Ipaja Road, Alaguntan",
    "lat": "6.6157169",
    "lng": "3.2979085",
    "category": "Shop",
    "date": "00/00/00",
    "city": "Lagos"
  },
  {
    "id": "24",
    "name": "Cmart Supermarket",
    "address": "1 Babafemi Osoba Cres, Lekki Phase I",
    "lat": "6.4585508",
    "lng": "3.4708804",
    "category": "Shop",
    "date": "00/00/00",
    "city": "Lagos"
  },
  {
    "id": "25",
    "name": "Trimart Supermarket",
    "address": "12 Furo Ezimora St, Lekki Phase I ",
    "lat": "6.4327426",
    "lng": "3.4664732",
    "category": "Shop",
    "date": "00/00/00",
    "city": "Lagos"
  },
  {
    "id": "26",
    "name": "Westgate",
    "address": "1 Apostolic Close, Isheri, Ikosi",
    "lat": "6.6350286",
    "lng": "3.3751926",
    "category": "Shop",
    "date": "00/00/00",
    "city": "Lagos"
  },
  {
    "id": "27",
    "name": "Cecisupermarket",
    "address": "Unipetrol Rd, Satellite Town",
    "lat": "6.4484644",
    "lng": "3.2500246",
    "category": "Shop",
    "date": "00/00/00",
    "city": "Lagos"
  },
  {
    "id": "28",
    "name": "3Chub_Marina",
    "address": "182/ 184 Broad Street, Lagos Island",
    "lat": "6.4563061",
    "lng": "3.3822512",
    "category": "Shop",
    "date": "00/00/00",
    "city": "Lagos"
  },
  {
    "id": "29",
    "name": "3Chub_Ajah",
    "address": "34/36 Bisi Afolabi Street, Beside Wema Bank, Alesh Hotel, Ajah Lagos State Nigera",
    "lat": "6.4855861",
    "lng": "3.584842",
    "category": "Shop",
    "date": "00/00/00",
    "city": "Lagos"
  },
  {
    "id": "30",
    "name": "3Chub_Iyanaipaja",
    "address": "New Ipaja Road, Iyana Ipaja Round About",
    "lat": "6.6187236",
    "lng": "3.2999612",
    "category": "Shop",
    "date": "00/00/00",
    "city": "Lagos"
  },
  {
    "id": "31",
    "name": "3Chub_Ikotun",
    "address": "1 Daleko Street Ikotun Isolo Road",
    "lat": "6.5399851",
    "lng": "3.29303",
    "category": "Shop",
    "date": "00/00/00",
    "city": "Lagos"
  },
  {
    "id": "32",
    "name": "3Chub_Sango",
    "address": "22B Abeokuta Expressway Ogun State",
    "lat": "6.6082746",
    "lng": "3.3234732",
    "category": "Shop",
    "date": "00/00/00",
    "city": "Lagos"
  },
  {
    "id": "33",
    "name": "3Chub_Ikeja",
    "address": "4A Olu-Koleosho Street, Off Simbiat Abiola Way, Ikeja Lagos State",
    "lat": "6.5975756",
    "lng": "3.3575966",
    "category": "Shop",
    "date": "00/00/00",
    "city": "Lagos"
  },
  {
    "id": "34",
    "name": "3Chub_Computer Village",
    "address": "Shop 9 Otigba Street, Computer Village, Ikeja",
    "lat": "6.5961291",
    "lng": "3.3401234",
    "category": "Shop",
    "date": "00/00/00",
    "city": "Lagos"
  },
  {
    "id": "35",
    "name": "3Chub_Kodeshoikeja",
    "address": "17A, Kodesho Street, Opp Kfc, Ikeja, Lagos",
    "lat": "6.5946051",
    "lng": "3.3420315",
    "category": "Shop",
    "date": "00/00/00",
    "city": "Lagos"
  },
  {
    "id": "36",
    "name": "3Chub_Sakatinubu",
    "address": "11, Saka Tinubu, Victoria Island, Lagos",
    "lat": "6.4271519",
    "lng": "3.419602",
    "category": "Shop",
    "date": "00/00/00",
    "city": "Lagos"
  },
  {
    "id": "37",
    "name": "3Chub_Mushin",
    "address": "Isolo Road, Mushin, Lagos",
    "lat": "6.5304507",
    "lng": "3.3440248",
    "category": "Shop",
    "date": "00/00/00",
    "city": "Lagos"
  },
  {
    "id": "38",
    "name": "Justrite_Bariga",
    "address": "15, Obadina Street, Bariga, Lagos, Nigeria",
    "lat": "6.6502458",
    "lng": "3.2970366",
    "category": "Shop",
    "date": "00/00/00",
    "city": "Lagos"
  },
  {
    "id": "39",
    "name": "Slot-Lg-Computervillage",
    "address": "15/19 Ola Ayeni St, Computer Village",
    "lat": "6.595503",
    "lng": "3.3410998",
    "category": "Shop",
    "date": "00/00/00",
    "city": "Lagos"
  },
  {
    "id": "40",
    "name": "Total Pump Alakuko",
    "address": "Lagos Abeokuta Express Road, Ojokoro Lga, Alakuko, Near Alakuko Police Station",
    "lat": "6.6811211",
    "lng": "3.2646492",
    "category": "Shop",
    "date": "00/00/00",
    "city": "Lagos"
  },
  {
    "id": "41",
    "name": "Total Pump Lekki",
    "address": "The Palms Shopping Mall, Lekki/ Epe Expressway",
    "lat": "6.4358377",
    "lng": "3.4514589",
    "category": "Shop",
    "date": "00/00/00",
    "city": "Lagos"
  },
  {
    "id": "42",
    "name": "Erons Mega Mart",
    "address": "41 Lagos Road Ikorodu",
    "lat": "6.621244",
    "lng": "3.501697",
    "phone": "8038297123",
    "category": "Channel Partner",
    "date": "00/00/00",
    "city": "Lagos"
  },
  {
    "id": "43",
    "name": "Laptop Place",
    "address": "29/31 Awolowo Road, Ikeja, Lagos.",
    "lat": "6.61364",
    "lng": "3.355086",
    "phone": "8033022957",
    "category": "Channel Partner",
    "date": "00/00/00",
    "city": "Lagos"
  },
  {
    "id": "44",
    "name": "Big Data Technologies",
    "address": "1 Toyosi Street Orile Iganmu",
    "lat": "6.478894",
    "lng": "3.344834",
    "phone": "8023801905",
    "category": "Channel Partner",
    "date": "00/00/00",
    "city": "Lagos"
  },
  {
    "id": "45",
    "name": "Fibre Path Ltd",
    "address": "205 Akowonjo Road Egbeda",
    "lat": "6.600693",
    "lng": "3.300757",
    "phone": "8037919818",
    "category": "Channel Partner",
    "date": "00/00/00",
    "city": "Lagos"
  },
  {
    "id": "46",
    "name": "Pinacle Wireless Ltd",
    "address": "27 Idimu Road Ikotun Lagos",
    "lat": "6.602381",
    "lng": "3.306727",
    "phone": "7056330100",
    "category": "Channel Partner",
    "date": "00/00/00",
    "city": "Lagos"
  },
  {
    "id": "47",
    "name": "Bailord Phone Mall",
    "address": "2, Ijegun Road Ikotun",
    "lat": "6.550971",
    "lng": "3.268508",
    "phone": "7025282722",
    "category": "Channel Partner",
    "date": "00/00/00",
    "city": "Lagos"
  },
  {
    "id": "48",
    "name": "Tord Technology",
    "address": "38 King George V By Mc Carthy",
    "lat": "6.447499",
    "lng": "3.405821",
    "phone": "7046333356",
    "category": "Channel Partner",
    "date": "00/00/00",
    "city": "Lagos"
  },
  {
    "id": "49",
    "name": "Darlin Ronkus Phone Ventures",
    "address": "75 Obafemi Awolowo Way",
    "lat": "6.598734",
    "lng": "3.34275",
    "phone": "8052335074",
    "category": "Channel Partner",
    "date": "00/00/00",
    "city": "Lagos"
  },
  {
    "id": "50",
    "name": "Ugoamez Global Ltd",
    "address": "1/3 Ali Street Tinubu Sq Lagos Island",
    "lat": "6.453665 ",
    "lng": "3.389963",
    "phone": "7034539418",
    "category": "Channel Partner",
    "date": "00/00/00",
    "city": "Lagos"
  },
  {
    "id": "51",
    "name": "Ideal Mobile Ltd",
    "address": "512 Road, House 1, B Close Festac Town",
    "lat": "6.463473 ",
    "lng": "3.296069",
    "phone": "8126865776",
    "category": "Channel Partner",
    "date": "00/00/00",
    "city": "Lagos"
  },
  {
    "id": "52",
    "name": "Mosprint Nigeria Limited",
    "address": "1, Adeoyo Street Mushin/74, Ladipo Street, Mushin",
    "lat": "6.527886",
    "lng": "3.3411",
    "phone": "8035353446",
    "category": "Channel Partner",
    "date": "00/00/00",
    "city": "Lagos"
  },
  {
    "id": "53",
    "name": "Niftundip Communications Ltd",
    "address": "Chinasa Popoola, 58 Ajuwon Street, Akute Road Akute",
    "lat": "6.671706 ",
    "lng": "3.334844",
    "phone": "8097227758",
    "category": "Channel Partner",
    "date": "00/00/00",
    "city": "Lagos"
  },
  {
    "id": "54",
    "name": "Pointek",
    "address": "Emma Ekuma, 6, Medical Road, Ikeja ,Lagos",
    "lat": "6.6065651",
    "lng": "3.3494742",
    "phone": "8133408905",
    "category": "Channel Partner",
    "date": "00/00/00",
    "city": "Lagos"
  },
  {
    "id": "55",
    "name": "Peckham Investment Limited",
    "address": " 23/29, Abibu_Oki Street Off Broad Street Lagos",
    "lat": "6.452514",
    "lng": "3.390239",
    "phone": "8029557677",
    "category": "Channel Partner",
    "date": "00/00/00",
    "city": "Lagos"
  },
  {
    "id": "56",
    "name": "Rising Star Supermarket",
    "address": "Broadway House Km 40 Badagry Express Way Mile 2",
    "lat": "6.49487",
    "lng": "3.13685",
    "phone": "7089367607",
    "category": "Channel Partner",
    "date": "00/00/00",
    "city": "Lagos"
  },
  {
    "id": "57",
    "name": "K-Starfresh Concept",
    "address": "Facco Plaza Km 29 Lagos Abeokuta Expressway Meiran",
    "lat": "6.664357",
    "lng": "3.28209",
    "phone": "8033084160",
    "category": "Channel Partner",
    "date": "00/00/00",
    "city": "Lagos"
  },
  {
    "id": "58",
    "name": "F.F. Tech Communication Ltd",
    "address": "1, Soretue Street, Maternity Bust Stop, Yaya Abatan Road Ogba",
    "lat": "6.632543",
    "lng": "3.341248",
    "phone": "8060557953",
    "category": "Channel Partner",
    "date": "00/00/00",
    "city": "Lagos"
  },
  {
    "id": "59",
    "name": "Ladorite Systems",
    "address": "30/32 Adekunle Banjo Avenue, Magodo 11, Lagos",
    "lat": "6.616394",
    "lng": "3.371821",
    "phone": "8033046690",
    "category": "Channel Partner",
    "date": "00/00/00",
    "city": "Lagos"
  },
  {
    "id": "60",
    "name": "The Kingdom Communication ",
    "address": " 27, Osolo Way, Ajao Estate",
    "lat": "6.550913",
    "lng": "3.331723",
    "phone": "08032034264/08094832102",
    "category": "Channel Partner",
    "date": "00/00/00",
    "city": "Lagos"
  },
  {
    "id": "61",
    "name": "City Communications Limited",
    "address": "219, Agege Motor Road, Pen Cinema",
    "lat": "6.632382",
    "lng": "3.323872",
    "phone": "8099500028",
    "category": "Channel Partner",
    "date": "00/00/00",
    "city": "Lagos"
  },
  {
    "id": "62",
    "name": "Purch Gadget Limited",
    "address": " 4, Medical Road, Computer Village, Ikeja, Lagos",
    "lat": "6.60717",
    "lng": "3.349932",
    "phone": "09033234542/08109001966",
    "category": "Channel Partner",
    "date": "00/00/00",
    "city": "Lagos"
  },
  {
    "id": "63",
    "name": "Okay Fones Ltd",
    "address": " 19A, Awolowo Way, Ikeja",
    "lat": "6.597098",
    "lng": "3.340447",
    "phone": "8126457668",
    "category": "Channel Partner",
    "date": "00/00/00",
    "city": "Lagos"
  },
  {
    "id": "64",
    "name": "Broadband Comm",
    "address": "11,Oshitelu Street, Ikeji",
    "lat": "6.59451",
    "lng": "3.339869",
    "phone": "8056071560",
    "category": "Channel Partner",
    "date": "00/00/00",
    "city": "Lagos"
  },
  {
    "id": "65",
    "name": "Lateetoy Nigeria Ltd",
    "address": "Suit 26, Roseview Plaza Beachland Road Arepo, Ogun State",
    "lat": "6.698204",
    "lng": "3.429675",
    "phone": "8028414075",
    "category": "Channel Partner",
    "date": "00/00/00",
    "city": "Lagos"
  },
  {
    "id": "66",
    "name": "Total Tech Ltd",
    "address": "168, Isolo, Egbe Road, Egbe",
    "lat": "6.544194",
    "lng": "3.295575",
    "phone": "8023171283",
    "category": "Channel Partner",
    "date": "00/00/00",
    "city": "Lagos"
  },
  {
    "id": "67",
    "name": "Spectrum",
    "address": "18, Otigba Street, Ikeja, Lagos",
    "lat": "6.594875",
    "lng": "3.3405",
    "phone": "8038988172",
    "category": "Channel Partner",
    "date": "00/00/00",
    "city": "Lagos"
  },
  {
    "id": "68",
    "name": "Cynssa ",
    "address": "10, Adepele Street, Computer Zone, Alaba, Ojo",
    "lat": "6.475542",
    "lng": "3.194815",
    "phone": "8068157150",
    "category": "Channel Partner",
    "date": "00/00/00",
    "city": "Lagos"
  },
  {
    "id": "69",
    "name": "Inter Global",
    "address": "7 Badaru Street, Off Adegoke, Surulere, Lagos.",
    "lat": "6.505073",
    "lng": "3.349963",
    "phone": "8033213534",
    "category": "Channel Partner",
    "date": "00/00/00",
    "city": "Lagos"
  },
  {
    "id": "70",
    "name": "Giant Trend Gadgets Ltd",
    "address": "23, Awolowo Road Ikeja",
    "lat": "6.596587",
    "lng": "3.339603",
    "phone": "8033043027",
    "category": "Channel Partner",
    "date": "00/00/00",
    "city": "Lagos"
  },
  {
    "id": "71",
    "name": "Unique Evermore Global Ventures",
    "address": "30, Wharf Road Apapa, Lagos",
    "lat": "6.442532",
    "lng": "3.375938",
    "phone": "7036417871",
    "category": "Channel Partner",
    "date": "00/00/00",
    "city": "Lagos"
  },
  {
    "id": "72",
    "name": "Bread Of Heaven Bakery And Supermarket",
    "address": "25, Adebowale Street, Ojodu",
    "lat": "6.647308",
    "lng": "3.362284",
    "phone": "8174235353",
    "category": "Channel Partner",
    "date": "00/00/00",
    "city": "Lagos"
  },
  {
    "id": "73",
    "name": "Jamal Communication",
    "address": "12, Ijaola Street, Onegbongbo, Mary Land",
    "lat": "6.571189",
    "lng": "3.362563",
    "phone": "8033059521",
    "category": "Channel Partner",
    "date": "00/00/00",
    "city": "Lagos"
  },
  {
    "id": "74",
    "name": "Rccg Bethel Place",
    "address": "Km 46, Lagos Ibadan Expressway Mowe",
    "lat": "6.817863",
    "lng": "3.459875",
    "phone": "8111817522",
    "category": "Channel Partner",
    "date": "00/00/00",
    "city": "Ogun"
  },
  {
    "id": "75",
    "name": "Kafi Bayo Nigeria Ltd",
    "address": "6, Mudashina Street Mowe",
    "lat": "6.807843",
    "lng": "3.435717",
    "phone": "8034295128",
    "category": "Channel Partner",
    "date": "00/00/00",
    "city": "Ogun"
  },
  {
    "id": "76",
    "name": "Arotech Steel Nigeria Ltd",
    "address": "1, Alarape Street, Iyana Oworo, Bariga",
    "lat": "6.547512",
    "lng": "3.39501",
    "phone": "8029482729",
    "category": "Channel Partner",
    "date": "00/00/00",
    "city": "Lagos"
  },
  {
    "id": "77",
    "name": "Twarpy",
    "address": "3 Ayo Alabi Street, Modupe Junction, Oke Ira Aguda, Ogba",
    "lat": "6.645651",
    "lng": "3.343261",
    "phone": "09056087268/08172580424",
    "category": "Channel Partner",
    "date": "00/00/00",
    "city": "Lagos"
  },
  {
    "id": "78",
    "name": "Tc And Bk ",
    "address": "26B Agbado Road Iji Ishage",
    "lat": "6.67053",
    "lng": "3.322878",
    "phone": "8088042691",
    "category": "Channel Partner",
    "date": "00/00/00",
    "city": "Lagos"
  },
  {
    "id": "79",
    "name": "Ifeytech Services",
    "address": "20 Olowu Street, Ikeja",
    "lat": "6.598006",
    "lng": "3.343622",
    "phone": "8062491101",
    "category": "Channel Partner",
    "date": "00/00/00",
    "city": "Lagos"
  },
  {
    "id": "80",
    "name": "Revive Technologies Limited",
    "address": "2, Medical Road, Computer Village, Ikeja",
    "lat": "6.606812",
    "lng": "3.349856",
    "phone": "8038804058",
    "category": "Channel Partner",
    "date": "00/00/00",
    "city": "Lagos"
  },
  {
    "id": "81",
    "name": "Adekunle Ronkus Company",
    "address": "Shop 11, Modupe Shopping Complex Jakande Estate",
    "lat": "6.530128",
    "lng": "3.308206",
    "phone": "8037008606",
    "category": "Channel Partner",
    "date": "00/00/00",
    "city": "Lagos"
  },
  {
    "id": "82",
    "name": "I World Ventures",
    "address": "17, Association Avenue, Ilupeji, Lagos",
    "lat": "6.547936",
    "lng": "3.363284",
    "phone": "8099481503",
    "category": "Channel Partner",
    "date": "00/00/00",
    "city": "Lagos"
  },
  {
    "id": "83",
    "name": "Afforable Phones",
    "address": "7, Koshode Street Ikeja",
    "lat": "6.594542",
    "lng": "3.341831",
    "phone": "8023458077",
    "category": "Channel Partner",
    "date": "00/00/00",
    "city": "Lagos"
  },
  {
    "id": "84",
    "name": "Silva Net Communications",
    "address": "Shop 39, New Plaza By Small Gate, New Mandilas Trade Fair",
    "lat": "6.455016",
    "lng": "3.386266",
    "phone": "8034915001",
    "category": "Channel Partner",
    "date": "00/00/00",
    "city": "Lagos"
  },
  {
    "id": "85",
    "name": "Y2K-Dish ",
    "address": "1, Powerline Way Badore Road Ajah",
    "lat": "6.504074",
    "lng": "3.601478",
    "phone": "8060737980",
    "category": "Channel Partner",
    "date": "00/00/00",
    "city": "Lagos"
  },
  {
    "id": "86",
    "name": "Galant Comm",
    "address": "88 Agidi Road, Beside 1St Bank, Alapere Roundabout, Alapere, Ketu, Lagos.",
    "lat": "6.586032",
    "lng": "3.383721",
    "phone": "8026659999",
    "category": "Channel Partner",
    "date": "00/00/00",
    "city": "Lagos"
  },
  {
    "id": "87",
    "name": "Mikky Ventures",
    "address": "7A New Ipaja Road, Iyana Ipaja, Lagos.",
    "lat": "6.619561",
    "lng": "3.30048",
    "phone": "8096254301",
    "category": "Channel Partner",
    "date": "00/00/00",
    "city": "Lagos"
  },
  {
    "id": "88",
    "name": "Jacamaiah Global Business Ventures",
    "address": "Block C74, Ikota Shopping Complex, Lekki, Lagos. ",
    "lat": "6.458985",
    "lng": "3.601521",
    "phone": "8080550498",
    "category": "Channel Partner",
    "date": "00/00/00",
    "city": "Lagos"
  },
  {
    "id": "89",
    "name": "De Café",
    "address": "42, Ladipo Lanijo Crescent Off Bode Thomas, Surulere, Lagos.",
    "lat": "6.489283",
    "lng": "3.35804",
    "phone": "8033198405",
    "category": "Channel Partner",
    "date": "00/00/00",
    "city": "Lagos"
  },
  {
    "id": "90",
    "name": "Wireless Bridge",
    "address": "61 Bode Thomas Surulere, Lagos.",
    "lat": "6.490262",
    "lng": "3.354934",
    "phone": "8099999678",
    "category": "Channel Partner",
    "date": "00/00/00",
    "city": "Lagos"
  },
  {
    "id": "91",
    "name": "Yfree  Solution",
    "address": "Suite 4, 2Nd Floor 311 Borno Way, Yaba, Lagos.",
    "lat": "6.495358",
    "lng": "3.378416",
    "phone": "8023416600",
    "category": "Channel Partner",
    "date": "00/00/00",
    "city": "Lagos"
  },
  {
    "id": "92",
    "name": "Choizcom",
    "address": "10, Toyin Street, Ikeja, Lagos.",
    "lat": "6.596205 ",
    "lng": "3.346889",
    "phone": "8024030675",
    "category": "Channel Partner",
    "date": "00/00/00",
    "city": "Lagos"
  },
  {
    "id": "93",
    "name": "Tiwanet Technologies",
    "address": "57, Lasu Isheri Road, Orephta Bus Stop, Lagos.",
    "lat": "6.577482",
    "lng": "3.279076",
    "phone": "8023384835",
    "category": "Channel Partner",
    "date": "00/00/00",
    "city": "Lagos"
  },
  {
    "id": "94",
    "name": "Royal Spectrum Nig Ltd",
    "address": "Suit 35 Blk A, Primatek Plaza, Iju Road Opp Iju Garage, Agege.",
    "lat": "6.577089",
    "lng": "3.278597",
    "phone": "8036645933",
    "category": "Channel Partner",
    "date": "00/00/00",
    "city": "Lagos"
  },
  {
    "id": "95",
    "name": "Dot. Com Ventures",
    "address": "515 Abeokuta Express Way,Progress Plaza, Opposite  Tantaliser/Zenith Bank, Abule Egba, B/Stop, Lagos.",
    "lat": "6.649838",
    "lng": "3.303741",
    "phone": "7025057070",
    "category": "Channel Partner",
    "date": "00/00/00",
    "city": "Lagos"
  },
  {
    "id": "96",
    "name": "Great Bakis Ventures Ltd",
    "address": "13 Isheri Road, Opp Fidelity Bank/Zenith Bank, Ogba Aguda, Lagos.",
    "lat": "6.833333",
    "lng": "3.65",
    "phone": "8022903947",
    "category": "Channel Partner",
    "date": "00/00/00",
    "city": "Lagos"
  },
  {
    "id": "97",
    "name": "Double 'S' Global Investment",
    "address": "5 Kajola Street,Ojodu, Lagos.",
    "lat": "6.570173",
    "lng": "3.374293",
    "phone": "7033779157",
    "category": "Channel Partner",
    "date": "00/00/00",
    "city": "Lagos"
  },
  {
    "id": "98",
    "name": "Ritech",
    "address": "25 Warehouse Road,Apapa, Lagos.",
    "lat": "6.458145",
    "lng": "3.366647",
    "phone": "8067409084",
    "category": "Channel Partner",
    "date": "00/00/00",
    "city": "Lagos"
  },
  {
    "id": "99",
    "name": "Charlotte",
    "address": "52 Allen Avenue (Besides Mr, Biggs Opp.Dhl) Ikeja.",
    "lat": "6.601553",
    "lng": "3.351893",
    "phone": "8055884695",
    "category": "Channel Partner",
    "date": "00/00/00",
    "city": "Lagos"
  },
  {
    "id": "100",
    "name": "F Tech",
    "address": "138 Iju Road, Ifako Ijaiye, Iju, Agege, Lagos.",
    "lat": "6.624938",
    "lng": "3.322485",
    "phone": "8060557953",
    "category": "Channel Partner",
    "date": "00/00/00",
    "city": "Lagos"
  },
  {
    "id": "101",
    "name": "Dihe",
    "address": "41 Ayodele Street, Mafoluku, Oshodi, Lagos.",
    "lat": "6.560561 ",
    "lng": "3.329029",
    "phone": "8033230567",
    "category": "Channel Partner",
    "date": "00/00/00",
    "city": "Lagos"
  },
  {
    "id": "102",
    "name": "Runwell Global Services",
    "address": "Shop E6/D6 44 Adebisi Awosoga Street, Agege, Lagos.",
    "lat": "6.611615",
    "lng": "3.317331",
    "phone": "8038632441",
    "category": "Channel Partner",
    "date": "00/00/00",
    "city": "Lagos"
  },
  {
    "id": "103",
    "name": "A.B.Y Communications ",
    "address": "126 Idiroko Road, Otta, Ogun State.",
    "lat": "6.681769",
    "lng": "3.162099",
    "phone": "8039706842",
    "category": "Channel Partner",
    "date": "00/00/00",
    "city": "Lagos"
  },
  {
    "id": "104",
    "name": "Codexplus Communication",
    "address": "5A Medical Road,  Ikeja, Lagos.",
    "lat": "6.606856",
    "lng": "3.349942",
    "phone": "7057978303",
    "category": "Channel Partner",
    "date": "00/00/00",
    "city": "Lagos"
  },
  {
    "id": "105",
    "name": "Nartel",
    "address": "7 Idowu Street, Surulere, Lagos.",
    "lat": "6.487728",
    "lng": "3.331806",
    "phone": "7044963800",
    "category": "Channel Partner",
    "date": "00/00/00",
    "city": "Lagos"
  },
  {
    "id": "106",
    "name": "Blessing Computers",
    "address": "Otigba Street Computer Village",
    "lat": "6.595776",
    "lng": "3.340088",
    "phone": "8029488761",
    "category": "Channel Partner",
    "date": "00/00/00",
    "city": "Lagos"
  },
  {
    "id": "107",
    "name": "Kenwal Ventures",
    "address": "11 Taiwo Osho Street, Ojokoro, Ikorodu, Lagos.",
    "lat": "6.636178",
    "lng": "3.486483",
    "phone": "7030240053",
    "category": "Channel Partner",
    "date": "00/00/00",
    "city": "Lagos"
  },
  {
    "id": "108",
    "name": "Edward Ogueri Ventures",
    "address": "79 Demurin Street, Ketu, Lagos.",
    "lat": "6.597329",
    "lng": "3.394316",
    "phone": "8098986524",
    "category": "Channel Partner",
    "date": "00/00/00",
    "city": "Lagos"
  },
  {
    "id": "109",
    "name": "Genie Infotech Ltd",
    "address": "1A Pebble Street, Computer Village, Ikeja,Lagos.",
    "lat": "6.595587",
    "lng": "3.341129",
    "phone": "8034020000",
    "category": "Channel Partner",
    "date": "00/00/00",
    "city": "Lagos"
  },
  {
    "id": "110",
    "name": "Real Garnet Solution Ltd",
    "address": "4B Akin Olugbade Street, Victoria Island, Lagos.",
    "lat": "6.430755 ",
    "lng": "3.422156",
    "phone": "8036126308",
    "category": "Channel Partner",
    "date": "00/00/00",
    "city": "Lagos"
  },
  {
    "id": "111",
    "name": "Chroplen",
    "address": "21, Obafemi Awolowo Way Ikeja Lagos",
    "lat": "6.596482",
    "lng": "3.337861",
    "phone": "8033816160",
    "category": "Channel Partner",
    "date": "00/00/00",
    "city": "Lagos"
  },
  {
    "id": "112",
    "name": "Too Digitcare",
    "address": "393 Old Ojo Road",
    "lat": "6.454908 ",
    "lng": "3.257607",
    "phone": "8025420292",
    "category": "Channel Partner",
    "date": "00/00/00",
    "city": "Lagos"
  },
  {
    "id": "113",
    "name": "Binet Resources",
    "address": "31 Osolo Way Ajao Estate Isolo",
    "lat": "6.603134 ",
    "lng": "3.3401",
    "phone": "8038444002",
    "category": "Channel Partner",
    "date": "00/00/00",
    "city": "Lagos"
  },
  {
    "id": "114",
    "name": "Divine Share Limited",
    "address": "78 Egbe Road Iyan Ejigbo Lagos",
    "lat": "6.540958",
    "lng": "3.296949",
    "phone": "8029792850",
    "category": "Channel Partner",
    "date": "00/00/00",
    "city": "Lagos"
  },
  {
    "id": "115",
    "name": "Lash One Links",
    "address": "411B Omofade Crescent Omole Estate",
    "lat": "6.561638",
    "lng": "3.384247",
    "phone": "8037143617",
    "category": "Channel Partner",
    "date": "00/00/00",
    "city": "Lagos"
  },
  {
    "id": "116",
    "name": "Charade International Limited",
    "address": "641 Lagos Abeokuta Expressway",
    "lat": "6.667127",
    "lng": "3.277028",
    "phone": "8030506195",
    "category": "Channel Partner",
    "date": "00/00/00",
    "city": "Lagos"
  },
  {
    "id": "117",
    "name": "Ugozy ",
    "address": "Shop C12 Century Mall",
    "lat": "6.439248",
    "lng": "3.351676",
    "phone": "8068316093",
    "category": "Channel Partner",
    "date": "00/00/00",
    "city": "Lagos"
  },
  {
    "id": "118",
    "name": "Bidland Global",
    "address": "13, Otigba Street Computer Village",
    "lat": "6.595213",
    "lng": "3.340242",
    "phone": "8026627777",
    "category": "Channel Partner",
    "date": "00/00/00",
    "city": "Lagos"
  },
  {
    "id": "119",
    "name": "Ing Systems Limited",
    "address": "94B Iju Road Opposite Nnpc Beside Uba Iju Agege",
    "lat": "6.6732",
    "lng": "3.334944",
    "phone": "8033346404",
    "category": "Channel Partner",
    "date": "00/00/00",
    "city": "Lagos"
  },
  {
    "id": "120",
    "name": "Damiano Phone World",
    "address": "22 Road Festac",
    "lat": "6.466393",
    "lng": "3.283862",
    "phone": "8028392486",
    "category": "Channel Partner",
    "date": "00/00/00",
    "city": "Lagos"
  },
  {
    "id": "121",
    "name": "Prostarworth",
    "address": "20 Ijoko Road Sango Otta Ogun State",
    "lat": "6.719332",
    "lng": "3.249485",
    "phone": "8026650033",
    "category": "Channel Partner",
    "date": "00/00/00",
    "city": "Ogun"
  },
  {
    "id": "122",
    "name": "Brown Street Ltd",
    "address": "Sunday Nse Essiet_Udoh, Plot D5, 5Th Avenue, Gowon Estate Egbeda,",
    "lat": "6.600543",
    "lng": "3.283466",
    "phone": "8060036414",
    "category": "Channel Partner",
    "date": "00/00/00",
    "city": "Lagos"
  },
  {
    "id": "123",
    "name": "Base 15 Concept Nig. Ltd",
    "address": "Basil Onodu, 20 Adebayo Mokuolu Street Anthony",
    "lat": "6.563921",
    "lng": "3.371339",
    "phone": "8062485114",
    "category": "Channel Partner",
    "date": "00/00/00",
    "city": "Lagos"
  },
  {
    "id": "124",
    "name": "Brain Power Global Technology",
    "address": "Gabriel Ayodele Samson, Suite C12, Adegoke Ayayi, Shopping Mall, Akute",
    "lat": "6.660015",
    "lng": "3.32922",
    "phone": "8021122703",
    "category": "Channel Partner",
    "date": "00/00/00",
    "city": "Lagos"
  },
  {
    "id": "125",
    "name": "Debond",
    "address": "65, Old Yaba Road, Yaba Lagos",
    "lat": "6.4946377",
    "lng": "3.3800999",
    "phone": "8023103236",
    "category": "Channel Partner",
    "date": "00/00/00",
    "city": "Lagos"
  },
  {
    "id": "126",
    "name": "Multiplier Merchant Ltd",
    "address": "5, Adekunle Street, Yaba, Lagos",
    "lat": "6.494258 ",
    "lng": "3.379474",
    "phone": "8026990432",
    "category": "Channel Partner",
    "date": "00/00/00",
    "city": "Lagos"
  },
  {
    "id": "127",
    "name": "Vista Vision",
    "address": "Saka Musa, Suite 13 Musule Complex, Alagbado",
    "lat": "6.705924",
    "lng": "3.348967",
    "category": "Channel Partner",
    "date": "00/00/00",
    "city": "Lagos"
  },
  {
    "id": "128",
    "name": "Onastream Nigeria Ent.",
    "address": "Mr. Moses Isimehei, Shop A37, Adebayo Street Bariga",
    "lat": "6.542977",
    "lng": "3.375049",
    "phone": "8033538456",
    "category": "Channel Partner",
    "date": "00/00/00",
    "city": "Lagos"
  },
  {
    "id": "129",
    "name": "Click Networks",
    "address": "I Muri Olosun Street, Ikotun Bus Stop",
    "lat": "6.547992 ",
    "lng": "3.267821",
    "phone": "80231224448",
    "category": "Channel Partner",
    "date": "00/00/00",
    "city": "Lagos"
  },
  {
    "id": "130",
    "name": "Damgoke Sen Print Company",
    "address": "33 Oluyole Street Mafoluku",
    "lat": "6.556689",
    "lng": "3.337913",
    "phone": "7031991451",
    "category": "Channel Partner",
    "date": "00/00/00",
    "city": "Lagos"
  },
  {
    "id": "131",
    "name": "Surefont Mobile ",
    "address": "Segun James, Oba Palace, Maryland",
    "lat": "6.574635",
    "lng": "3.36592",
    "phone": "7086660021",
    "category": "Channel Partner",
    "date": "00/00/00",
    "city": "Lagos"
  },
  {
    "id": "132",
    "name": "Almarie Nig. Ltd",
    "address": "Shop5, No 9,Isheri Road Ojodu",
    "lat": "6.636351",
    "lng": "3.35435",
    "phone": "8081339626",
    "category": "Channel Partner",
    "date": "00/00/00",
    "city": "Lagos"
  },
  {
    "id": "133",
    "name": "Doskay Nig Ltd",
    "address": "194 Awolowo Road Ikoyi",
    "lat": "6.44289",
    "lng": "3.412704",
    "phone": "9033963891",
    "category": "Channel Partner",
    "date": "00/00/00",
    "city": "Lagos"
  },
  {
    "id": "134",
    "name": "Symtech Technologies Company",
    "address": "13 Ojodu Road Akute",
    "lat": "6.673053",
    "lng": "3.361828",
    "phone": "8035796955",
    "category": "Channel Partner",
    "date": "00/00/00",
    "city": "Lagos"
  },
  {
    "id": "135",
    "name": "Nexoft Solution Nig. Ltd",
    "address": "44 Ekoro Road, Wonderful God Plaza, Egbeda",
    "lat": "6.598789",
    "lng": "3.291891",
    "phone": "8064664200",
    "category": "Channel Partner",
    "date": "00/00/00",
    "city": "Lagos"
  },
  {
    "id": "136",
    "name": "Icell Mobile Phones Limited",
    "address": "1, Ire_Akari Street, Isolo Lagos",
    "lat": "6.521625",
    "lng": "3.322094",
    "phone": "8028282466/8066090579",
    "category": "Channel Partner",
    "date": "00/00/00",
    "city": "Lagos"
  },
  {
    "id": "137",
    "name": "Discount City Ventures Limited",
    "address": "30/51 Iju Road Beside Fedelity Bank Agege Lagos",
    "lat": "6.642938",
    "lng": "3.323388",
    "phone": "8087111111",
    "category": "Channel Partner",
    "date": "00/00/00",
    "city": "Lagos"
  },
  {
    "id": "138",
    "name": "Olumajek It Continental",
    "address": "09 Ofada Road Mowe, Ogun State",
    "lat": "6.81997",
    "lng": "3.455993",
    "phone": "8038153767",
    "category": "Channel Partner",
    "date": "00/00/00",
    "city": "Ogun"
  },
  {
    "id": "139",
    "name": "God'S Glory Standard Vision & Co Nig Ltd",
    "address": " 1, Osholewa Street Mowoe",
    "lat": "6.821147",
    "lng": "3.432726",
    "phone": "8034289684",
    "category": "Channel Partner",
    "date": "00/00/00",
    "city": "Lagos"
  },
  {
    "id": "140",
    "name": "Sdma Networks Ltd",
    "address": "Block A2, Suite 130, Sura Office Complex, Lagos Island",
    "lat": "6.454924",
    "lng": "3.40354",
    "phone": "08063202545/08023202661",
    "category": "Channel Partner",
    "date": "00/00/00",
    "city": "Lagos"
  },
  {
    "id": "141",
    "name": "Diurnal Int'L Limited",
    "address": "Shop 9, Biyot Shopping Complex, 30B Asa Afariogun Street, Ajao Estate ",
    "lat": "6.546039",
    "lng": "3.3269",
    "phone": "8183006752",
    "category": "Channel Partner",
    "date": "00/00/00",
    "city": "Lagos"
  },
  {
    "id": "142",
    "name": "Easycom Global Connection",
    "address": "Shop 4, Anjorin, Shopping Complex, Apapa",
    "lat": "6.444286",
    "lng": "3.369718",
    "phone": "8033584559",
    "category": "Channel Partner",
    "date": "00/00/00",
    "city": "Lagos"
  },
  {
    "id": "143",
    "name": "Profound House Of Designs",
    "address": "28 Shipeolu Street,By Fcmb Elediye Bus Stop, Shomolu",
    "lat": "6.541167",
    "lng": "3.368304",
    "phone": "08067651216/08056753614",
    "category": "Channel Partner",
    "date": "00/00/00",
    "city": "Lagos"
  },
  {
    "id": "144",
    "name": "Global Light Crown Ventures",
    "address": "3, Aladelola Street, Leader'S Plaza, Ikosi Ketu",
    "lat": "6.601201",
    "lng": "3.380983",
    "phone": "08035150646/08180922033",
    "category": "Channel Partner",
    "date": "00/00/00",
    "city": "Lagos"
  },
  {
    "id": "145",
    "name": "Ibuoye Investment Limited",
    "address": " 6, Ibukun-Olu Street, Fola Agoro, Shomolu ",
    "lat": "6.527208",
    "lng": "3.380875",
    "phone": "8033754728",
    "category": "Channel Partner",
    "date": "00/00/00",
    "city": "Lagos"
  },
  {
    "id": "146",
    "name": "Dandolas Nigeria Limited",
    "address": "7, Oluwakemi Street, Alapere Bus Stop, Alapere",
    "lat": "6.587545",
    "lng": "3.398276",
    "phone": "8033137440",
    "category": "Channel Partner",
    "date": "00/00/00",
    "city": "Lagos"
  },
  {
    "id": "147",
    "name": "Amarcelo Limited",
    "address": "5, Alafia Street, Coker, Orile Iganmu",
    "lat": "6.475932",
    "lng": "3.327311",
    "phone": "8034026246",
    "category": "Channel Partner",
    "date": "00/00/00",
    "city": "Lagos"
  },
  {
    "id": "148",
    "name": "Wemcom International Limited",
    "address": "22, Ayangbunren Road Ikorodu",
    "lat": "6.619483",
    "lng": "3.503392",
    "phone": "09081947738/08166021656",
    "category": "Channel Partner",
    "date": "00/00/00",
    "city": "Lagos"
  },
  {
    "id": "149",
    "name": "Optics Network",
    "address": "12A Lorisile Complex, Isawo Road, Agric Ikorodu",
    "lat": "6.625928",
    "lng": "3.484173",
    "phone": "8066580721",
    "category": "Channel Partner",
    "date": "00/00/00",
    "city": "Lagos"
  },
  {
    "id": "150",
    "name": "Digital Direct Ltd",
    "address": "69B, Admiralty Way, Lekki Phase 1",
    "lat": "6.448195",
    "lng": "3.470105",
    "phone": "8162450445",
    "category": "Channel Partner",
    "date": "00/00/00",
    "city": "Lagos"
  },
  {
    "id": "151",
    "name": "Gabnet Technology",
    "address": "Suit 16, Yah Wahab Shopping Complex, Arepo",
    "lat": "6.656906",
    "lng": "3.382509",
    "phone": "8077735771",
    "category": "Channel Partner",
    "date": "00/00/00",
    "city": "Lagos"
  },
  {
    "id": "152",
    "name": "Gracee Industries Nigeria Limited",
    "address": "98, Mushin Road, Isolo",
    "lat": "6.530521",
    "lng": "3.343904",
    "phone": "08092557758/08039339945",
    "category": "Channel Partner",
    "date": "00/00/00",
    "city": "Lagos"
  },
  {
    "id": "153",
    "name": "Big Brown Multi Concept Ltd",
    "address": "6, Suit B, Marna Road, Satelite Town",
    "lat": "6.542455",
    "lng": "3.343398",
    "phone": "8130375054",
    "category": "Channel Partner",
    "date": "00/00/00",
    "city": "Lagos"
  },
  {
    "id": "154",
    "name": "Hatlon Systems",
    "address": "20 Ire Akari Estate , Isolo",
    "lat": "6.521918",
    "lng": "3.322083",
    "phone": "8028309776",
    "category": "Channel Partner",
    "date": "00/00/00",
    "city": "Lagos"
  },
  {
    "id": "155",
    "name": "Happymood Enterprises",
    "address": "73, Lawanson Road By Wuraola B/S Lawanson",
    "lat": "6.513501",
    "lng": "3.346591",
    "phone": "8026886882",
    "category": "Channel Partner",
    "date": "00/00/00",
    "city": "Lagos"
  },
  {
    "id": "156",
    "name": "Nik-Ark Ventures Nigeria Limited",
    "address": "32B Isolo Road, Ilegogoro Bus Stop, Ala Salatu Junction",
    "lat": "6.51954",
    "lng": "3.309395",
    "phone": "8186858988",
    "category": "Channel Partner",
    "date": "00/00/00",
    "city": "Lagos"
  },
  {
    "id": "157",
    "name": "Genkhaz Investment Limited",
    "address": "51, Olusegun  Osoba Way Agbado Crossing, Agbado",
    "lat": "6.71413",
    "lng": "3.28517",
    "phone": "8038037952/09091988901",
    "category": "Channel Partner",
    "date": "00/00/00",
    "city": "Lagos"
  },
  {
    "id": "158",
    "name": "Global Communication And Digital Services",
    "address": "4, Oguntona Street Opposite First Bank Alapere",
    "lat": "6.588088",
    "lng": "3.399205",
    "phone": "08034012727/08186124855",
    "category": "Channel Partner",
    "date": "00/00/00",
    "city": "Lagos"
  },
  {
    "id": "159",
    "name": "Buddybod Enterprises",
    "address": "65, Ekoro Road, Abule-Egbe, Lagos",
    "lat": "6.64814",
    "lng": "3.30603",
    "phone": "8036561045",
    "category": "Channel Partner",
    "date": "00/00/00",
    "city": "Lagos"
  },
  {
    "id": "160",
    "name": "Ankot Ventures",
    "address": " 57, Shipeolu Street, Palmgrove",
    "lat": "6.541086",
    "lng": "3.368211",
    "phone": "9092451933",
    "category": "Channel Partner",
    "date": "00/00/00",
    "city": "Lagos"
  },
  {
    "id": "161",
    "name": "First Global Page Six Imagery Ltd",
    "address": "7 General Hospital Road Gbagada",
    "lat": "6.553092",
    "lng": "3.387848",
    "phone": "8157926536",
    "category": "Channel Partner",
    "date": "00/00/00",
    "city": "Lagos"
  },
  {
    "id": "162",
    "name": "Lifted Café",
    "address": "20 Ondo Street Ikorodu Road",
    "lat": "6.6035",
    "lng": "3.420261",
    "phone": "8036479703",
    "category": "Channel Partner",
    "date": "00/00/00",
    "city": "Lagos"
  },
  {
    "id": "163",
    "name": "First Consolation",
    "address": " Zenith Bank Car Park, Rccg Km 46, Lagos/Ibadan Expressway Mowe ",
    "lat": "6.51045",
    "lng": "3.345906",
    "phone": "08033953566/07043718607",
    "category": "Channel Partner",
    "date": "00/00/00",
    "city": "Ogun"
  },
  {
    "id": "164",
    "name": "Jenick Travels And Tours Ltd",
    "address": "Block 8, Flat 1 4Th Avenue, Festac Town",
    "lat": "6.476291",
    "lng": "3.279918",
    "phone": "8036689906",
    "category": "Channel Partner",
    "date": "00/00/00",
    "city": "Lagos"
  },
  {
    "id": "165",
    "name": "Showdeck",
    "address": "Blk E519, Shop 11/12, The Arena Shopping Complex Bola De Oshodi ",
    "lat": "6.564251",
    "lng": "3.349967",
    "phone": "8023122391",
    "category": "Channel Partner",
    "date": "00/00/00",
    "city": "Lagos"
  },
  {
    "id": "166",
    "name": "Tegra-Eagles Concept Int'L Ltd",
    "address": "14, Bayo Close Abule Osun, Ojo, Lagos ",
    "lat": "6.448545",
    "lng": "3.244167",
    "phone": "07011033480/08034556076",
    "category": "Channel Partner",
    "date": "00/00/00",
    "city": "Lagos"
  },
  {
    "id": "167",
    "name": "Zebra Communication Service",
    "address": "Suit K198, Road 5, Ikota Shopping Complex Victoria Garden City",
    "lat": "6.463951",
    "lng": "3.556686",
    "phone": "08023049927/08133083229",
    "category": "Channel Partner",
    "date": "00/00/00",
    "city": "Lagos"
  },
  {
    "id": "168",
    "name": "Mismad Systems And Technology",
    "address": "15, Babalola Street, Magodo",
    "lat": "6.591962",
    "lng": "3.299315",
    "phone": "08023833241/07038036622",
    "category": "Channel Partner",
    "date": "00/00/00",
    "city": "Lagos"
  },
  {
    "id": "169",
    "name": "Zillow",
    "address": "4B, Olayeni Street, Computer Village Ikeja",
    "lat": "6.592752",
    "lng": "3.363533",
    "phone": "08023600521/08133044232",
    "category": "Channel Partner",
    "date": "00/00/00",
    "city": "Lagos"
  },
  {
    "id": "170",
    "name": "Cliapp Venture",
    "address": "13, Samuel Omoyara Street, Aguda",
    "lat": "6.495882",
    "lng": "3.342227",
    "phone": "8024040677",
    "category": "Channel Partner",
    "date": "00/00/00",
    "city": "Lagos"
  },
  {
    "id": "171",
    "name": "Giwa Al-Hudah Travels & Tours Ltd",
    "address": "75, Ojuelegba Road, Surulere",
    "lat": "6.509979",
    "lng": "3.364598",
    "phone": "8121252782",
    "category": "Channel Partner",
    "date": "00/00/00",
    "city": "Lagos"
  },
  {
    "id": "172",
    "name": "Double Crown Solutions",
    "address": "10, Adewale Ifade Street, Off Ikotun Road, Igondo",
    "lat": "6.547971",
    "lng": "3.26781",
    "phone": "08095393222/0802203757",
    "category": "Channel Partner",
    "date": "00/00/00",
    "city": "Lagos"
  },
  {
    "id": "173",
    "name": "Smartdrive & Systems Ltd",
    "address": "36, Agungi-Ajiran Road, (Divine Grace Plaza), Lekki",
    "lat": "6.442643",
    "lng": "3.5162",
    "phone": "8033428469",
    "category": "Channel Partner",
    "date": "00/00/00",
    "city": "Lagos"
  },
  {
    "id": "174",
    "name": "Kaybeesco",
    "address": "147, Odunsi Street, Bariga, Lagos",
    "lat": "6.537393",
    "lng": "3.396529",
    "phone": "9053614125",
    "category": "Channel Partner",
    "date": "00/00/00",
    "city": "Lagos"
  },
  {
    "id": "175",
    "name": "Gfx Concepts Enterprises",
    "address": "Suit A1 City Of Praise Plaza Ado Road Ajah ",
    "lat": "6.475242",
    "lng": "3.568044",
    "phone": "08025646429/08037133612",
    "category": "Channel Partner",
    "date": "00/00/00",
    "city": "Lagos"
  },
  {
    "id": "176",
    "name": "Cyberdyne Integrated Ltd",
    "address": "61,Adekunle Banjo Cmd Ikeja",
    "lat": "6.614551",
    "lng": "3.371685",
    "phone": "08033009527/08075048381",
    "category": "Channel Partner",
    "date": "00/00/00",
    "city": "Lagos"
  },
  {
    "id": "177",
    "name": "Tecboom Innovation",
    "address": "20, Akute Road, Ajuwon, Ogun State",
    "lat": "6.678702",
    "lng": "3.36173",
    "phone": "8135261804",
    "category": "Channel Partner",
    "date": "00/00/00",
    "city": "Lagos"
  },
  {
    "id": "178",
    "name": "Horlmil Continental Services",
    "address": "1 Asegauga Street, Off Liasu Raod Egbe",
    "lat": "6.553415",
    "lng": "3.280263",
    "phone": "8028593759",
    "category": "Channel Partner",
    "date": "00/00/00",
    "city": "Lagos"
  },
  {
    "id": "179",
    "name": "Raslove Endurance Limited",
    "address": "Gasline Junction Orudu Road Adiyan Agbado",
    "lat": "6.686958",
    "lng": "3.302921",
    "phone": "8034093962",
    "category": "Channel Partner",
    "date": "00/00/00",
    "city": "Lagos"
  },
  {
    "id": "180",
    "name": "Da Moris Nig Enterprises",
    "address": "18, Asani Street, Ilaje Busstop, Akoka",
    "lat": "6.531862",
    "lng": "3.391006",
    "phone": "8185982434",
    "category": "Channel Partner",
    "date": "00/00/00",
    "city": "Lagos"
  },
  {
    "id": "181",
    "name": "Ct Travels & Tours",
    "address": "Block D Shop 12 Nnamdi Azikiwe Street Lagos Island",
    "lat": "6.453989",
    "lng": "3.389386",
    "phone": "8065008999",
    "category": "Channel Partner",
    "date": "00/00/00",
    "city": "Lagos"
  },
  {
    "id": "182",
    "name": "Olat Enterprise Limited",
    "address": "3, Dele Okuwh Street, Ikosi Ketu",
    "lat": "6.601897",
    "lng": "3.381815",
    "phone": "8028599841",
    "category": "Channel Partner",
    "date": "00/00/00",
    "city": "Lagos"
  },
  {
    "id": "183",
    "name": "Acmesynergy Limited",
    "address": "Suit 14, Ogidan Shopping Center, Sangotedo Ajah, Lagos",
    "lat": "6.449505",
    "lng": "3.622903",
    "phone": "7045786859",
    "category": "Channel Partner",
    "date": "00/00/00",
    "city": "Lagos"
  },
  {
    "id": "184",
    "name": "Opebi",
    "address": "15/17, Olajuwon House, Opebi Road, Ikeja, Lagos",
    "lat": "6.5949063",
    "lng": "3.3570565",
    "category": "Channel Partner",
    "date": "00/00/00",
    "city": "Lagos"
  },
  {
    "id": "185",
    "name": "Motorways",
    "address": "Suite 18, 1St Floor, 1, Motorways Avenue, Opp. Seven-Up Factory, Alausa, Ikeja, Lagos",
    "lat": "6.5995036",
    "lng": "3.3765276",
    "category": "Channel Partner",
    "date": "00/00/00",
    "city": "Lagos"
  },
  {
    "id": "186",
    "name": "Surulere",
    "address": "122, Bode Thomas Street, Surulere",
    "lat": "6.4889558",
    "lng": "3.3587868",
    "category": "Channel Partner",
    "date": "00/00/00",
    "city": "Lagos"
  },
  {
    "id": "187",
    "name": "Ecenter",
    "address": "E-Centre Mall, 3Rd Floor, 1-11 Commercial Avenue, Yaba, Lagos",
    "lat": "6.5063473",
    "lng": "3.374511",
    "category": "Channel Partner",
    "date": "00/00/00",
    "city": "Lagos"
  },
  {
    "id": "188",
    "name": "Ogba",
    "address": "Suite 45, Ogba Shopping Complex, Ijaiye Road, Ogba, Lagos",
    "lat": "6.6314259",
    "lng": "3.3405103",
    "category": "Channel Partner",
    "date": "00/00/00",
    "city": "Lagos"
  },
  {
    "id": "189",
    "name": "Ikorodu",
    "address": "132, Iyaniwura House, Lagos Road, Ikorodu, Lagos",
    "lat": "6.6250573",
    "lng": "3.4913889",
    "category": "Channel Partner",
    "date": "00/00/00",
    "city": "Lagos"
  },
  {
    "id": "190",
    "name": "Festac",
    "address": "Shop 11, Gacoun Plaza, Opp. K Close, Road 23, Festac, Lagos",
    "lat": "6.4701221",
    "lng": "3.2741199",
    "category": "Channel Partner",
    "date": "00/00/00",
    "city": "Lagos"
  },
  {
    "id": "191",
    "name": "Ilupeju",
    "address": "Ff1, 1St Floor, Light Plaza, 32, Association Avenue, Ilupeju, Lagos",
    "lat": "6.547208",
    "lng": "3.3643529",
    "category": "Channel Partner",
    "date": "00/00/00",
    "city": "Lagos"
  },
  {
    "id": "192",
    "name": "Apapa",
    "address": "Shop 41,First Floor,Left Wing,Apapa Shopping Mall.Parklane Apapa",
    "lat": "6.4489396",
    "lng": "3.3597244",
    "category": "Channel Partner",
    "date": "00/00/00",
    "city": "Lagos"
  },
  {
    "id": "193",
    "name": "Lekki",
    "address": "Block 4A, Samit Plaza, Admiralty Way, Lekki Phase I, Lekki, Lagos",
    "lat": "6.4480448",
    "lng": "3.4745899",
    "category": "Channel Partner",
    "date": "00/00/00",
    "city": "Lagos"
  },
  {
    "id": "194",
    "name": "Victoria Island",
    "address": "Plot 231 (49) Adeola Odeku Street, Victoria Island, Lagos",
    "lat": "6.4299482",
    "lng": "3.4106991",
    "category": "Channel Partner",
    "date": "00/00/00",
    "city": "Lagos"
  },
  {
    "id": "195",
    "name": "Lagos MMA2 ",
    "address": "First Floor, Departure Area, Murtala Mohammad Airport Terminal 2, Lagos",
    "lat": "6.5847425",
    "lng": "3.3327627",
    "category": "Channel Partner",
    "date": "00/00/00",
    "city": "Lagos"
  },
  {
    "id": "196",
    "name": "Lagos Abuleegba",
    "address": "Shop 28, Crossway Shopping Complex, First Floor, No, 3, Charity Road, Abule-Egba, Lagos",
    "lat": "6.650231",
    "lng": "3.3091273",
    "category": "Channel Partner",
    "date": "00/00/00",
    "city": "Lagos"
  },
  {
    "id": "197",
    "name": "Computer Village",
    "address": "First Floor, No. 9, Simbiat Abiola Road(Medical Road), Ikeja, Lagos",
    "lat": "6.6066801",
    "lng": "3.3496623",
    "category": "Channel Partner",
    "date": "00/00/00",
    "city": "Lagos"
  },
  {
    "id": "198",
    "name": "Slot LG Saka Tinubu",
    "address": "Slot Saka Tinubu",
    "lat": "6.4291218",
    "lng": "3.424216",
    "category": "Channel Partner",
    "date": "00/00/00",
    "city": "Lagos"
  },
  {
    "id": "199",
    "name": "Slotlgikjshoprite",
    "address": "Ikeja City Mall , Alausa Ikeja",
    "lat": "6.6141825",
    "lng": "3.3582994",
    "category": "Channel Partner",
    "date": "00/00/00",
    "city": "Lagos"
  },
  {
    "id": "200",
    "name": "Palms Lekki",
    "address": "1St Floor, Palms Lekki,  Opposite Genesis Cinema",
    "lat": "6.4356733",
    "lng": "3.4509429",
    "category": "Channel Partner",
    "date": "00/00/00",
    "city": "Lagos"
  },
  {
    "id": "201",
    "name": "Total Pump Onigbongbo",
    "address": "Mobolaji Bank Anthony Way, Ikeja Gra, Lagos",
    "lat": "6.5863524",
    "lng": "3.3574795",
    "category": "Channel Partner",
    "date": "00/00/00",
    "city": "Lagos"
  },
  {
    "id": "202",
    "name": "Justrite_Ikorodu",
    "address": "Klm 4, Idiroko Road, Ogolonto Bus Stop, Ikorodu",
    "lat": "6.6401727",
    "lng": "2.7530936",
    "category": "Channel Partner",
    "date": "00/00/00",
    "city": "Lagos"
  },
  {
    "id": "203",
    "name": "Justrite_Ojoduberger",
    "address": "Kosoko Street, Ojodu Berger, Ojodu, Lagos",
    "lat": "6.6422568",
    "lng": "3.3690495",
    "category": "Channel Partner",
    "date": "00/00/00",
    "city": "Lagos"
  },
  {
    "id": "204",
    "name": "Justrite_Ota",
    "address": "Kilometer 4, Idiroko Road, Sango Ota",
    "lat": "6.6847174",
    "lng": "3.2171698",
    "category": "Channel Partner",
    "date": "00/00/00",
    "city": "Lagos"
  },
  {
    "id": "205",
    "name": "Justrite_Iyanaipaja",
    "address": "55 ,Ipaja Road, Alaguntan",
    "lat": "6.6157169",
    "lng": "3.2979085",
    "category": "Channel Partner",
    "date": "00/00/00",
    "city": "Lagos"
  },
  {
    "id": "206",
    "name": "Cmart Supermarket",
    "address": "1 Babafemi Osoba Cres, Lekki Phase I",
    "lat": "6.4585508",
    "lng": "3.4708804",
    "category": "Channel Partner",
    "date": "00/00/00",
    "city": "Lagos"
  },
  {
    "id": "207",
    "name": "Trimart Supermarket",
    "address": "12 Furo Ezimora St, Lekki Phase I ",
    "lat": "6.4327426",
    "lng": "3.4664732",
    "category": "Channel Partner",
    "date": "00/00/00",
    "city": "Lagos"
  },
  {
    "id": "208",
    "name": "Westgate",
    "address": "1 Apostolic Close, Isheri, Ikosi",
    "lat": "6.6350286",
    "lng": "3.3751926",
    "category": "Channel Partner",
    "date": "00/00/00",
    "city": "Lagos"
  },
  {
    "id": "209",
    "name": "Cecisupermarket",
    "address": "Unipetrol Rd, Satellite Town",
    "lat": "6.4484644",
    "lng": "3.2500246",
    "category": "Channel Partner",
    "date": "00/00/00",
    "city": "Lagos"
  },
  {
    "id": "210",
    "name": "3Chub_Marina",
    "address": "182/ 184 Broad Street, Lagos Island",
    "lat": "6.4563061",
    "lng": "3.3822512",
    "category": "Channel Partner",
    "date": "00/00/00",
    "city": "Lagos"
  },
  {
    "id": "211",
    "name": "3Chub_Ajah",
    "address": "34/36 Bisi Afolabi Street, Beside Wema Bank, Alesh Hotel, Ajah Lagos State Nigera",
    "lat": "6.4855861",
    "lng": "3.584842",
    "category": "Channel Partner",
    "date": "00/00/00",
    "city": "Lagos"
  },
  {
    "id": "212",
    "name": "3Chub_Iyanaipaja",
    "address": "New Ipaja Road, Iyana Ipaja Round About",
    "lat": "6.6187236",
    "lng": "3.2999612",
    "category": "Channel Partner",
    "date": "00/00/00",
    "city": "Lagos"
  },
  {
    "id": "213",
    "name": "3Chub_Ikotun",
    "address": "1 Daleko Street Ikotun Isolo Road",
    "lat": "6.5399851",
    "lng": "3.29303",
    "category": "Channel Partner",
    "date": "00/00/00",
    "city": "Lagos"
  },
  {
    "id": "214",
    "name": "3Chub_Sango",
    "address": "22B Abeokuta Expressway Ogun State",
    "lat": "6.6082746",
    "lng": "3.3234732",
    "category": "Channel Partner",
    "date": "00/00/00",
    "city": "Lagos"
  },
  {
    "id": "215",
    "name": "3Chub_Ikeja",
    "address": "4A Olu-Koleosho Street, Off Simbiat Abiola Way, Ikeja Lagos State",
    "lat": "6.5975756",
    "lng": "3.3575966",
    "category": "Channel Partner",
    "date": "00/00/00",
    "city": "Lagos"
  },
  {
    "id": "216",
    "name": "3Chub_Computer Village",
    "address": "Shop 9 Otigba Street, Computer Village, Ikeja",
    "lat": "6.5961291",
    "lng": "3.3401234",
    "category": "Channel Partner",
    "date": "00/00/00",
    "city": "Lagos"
  },
  {
    "id": "217",
    "name": "3Chub_Kodeshoikeja",
    "address": "17A, Kodesho Street, Opp Kfc, Ikeja, Lagos",
    "lat": "6.5946051",
    "lng": "3.3420315",
    "category": "Channel Partner",
    "date": "00/00/00",
    "city": "Lagos"
  },
  {
    "id": "218",
    "name": "3Chub_Sakatinubu",
    "address": "11, Saka Tinubu, Victoria Island, Lagos",
    "lat": "6.4271519",
    "lng": "3.419602",
    "category": "Channel Partner",
    "date": "00/00/00",
    "city": "Lagos"
  },
  {
    "id": "219",
    "name": "3Chub_Mushin",
    "address": "Isolo Road, Mushin, Lagos",
    "lat": "6.5304507",
    "lng": "3.3440248",
    "category": "Channel Partner",
    "date": "00/00/00",
    "city": "Lagos"
  },
  {
    "id": "220",
    "name": "Justrite_Bariga",
    "address": "15, Obadina Street, Bariga, Lagos, Nigeria",
    "lat": "6.6502458",
    "lng": "3.2970366",
    "category": "Channel Partner",
    "date": "00/00/00",
    "city": "Lagos"
  },
  {
    "id": "221",
    "name": "Slot-Lg-Computervillage",
    "address": "15/19 Ola Ayeni St, Computer Village",
    "lat": "6.595503",
    "lng": "3.3410998",
    "category": "Channel Partner",
    "date": "00/00/00",
    "city": "Lagos"
  },
  {
    "id": "222",
    "name": "Total Pump Alakuko",
    "address": "Lagos Abeokuta Express Road, Ojokoro Lga, Alakuko, Near Alakuko Police Station",
    "lat": "6.6811211",
    "lng": "3.2646492",
    "category": "Channel Partner",
    "date": "00/00/00",
    "city": "Lagos"
  },
  {
    "id": "223",
    "name": "Total Pump Lekki",
    "address": "The Palms Shopping Mall, Lekki/ Epe Expressway",
    "lat": "6.4358377",
    "lng": "3.4514589",
    "category": "Channel Partner",
    "date": "00/00/00",
    "city": "Lagos"
  },
  {
    "id": "224",
    "name": "SNS RING ROD",
    "address": "95,PENIEL BUILDING,M.K.O ABIOLA WAY",
    "lat": "7.441959",
    "lng": "3.905949",
    "phone": "8115394204",
    "category": "Shop",
    "date": "00/00/00",
    "city": "Ibadan"
  },
  {
    "id": "225",
    "name": "UI-KIOSK",
    "address": "UNIVERSITY OF IBADAN",
    "lat": "7.444259",
    "lng": "3.899458",
    "phone": "8125638919",
    "category": "Shop",
    "date": "00/00/00",
    "city": "Ibadan"
  },
  {
    "id": "226",
    "name": "I WILL DISTRIBUTE",
    "address": "122 FAJUYI RD, MOKOLA ",
    "lat": "7.399709",
    "lng": "3.889754",
    "phone": "8035000270",
    "category": "Channel Partner",
    "date": "00/00/00",
    "city": "Ibadan"
  },
  {
    "id": "227",
    "name": "FUMAC PHARMACY",
    "address": "4, Olubadan avenue,Oluyole Estate, Mobil bus stop",
    "lat": "7.365755",
    "lng": "3.859999",
    "phone": "8105655961",
    "category": "Channel Partner",
    "date": "00/00/00",
    "city": "Ibadan"
  },
  {
    "id": "228",
    "name": "SOLAT TELECOMMS",
    "address": "PALMS MALL,RING ROAD",
    "lat": "7.364035",
    "lng": "3.86543",
    "phone": "7066917302",
    "category": "Channel Partner",
    "date": "00/00/00",
    "city": "Ibadan"
  },
  {
    "id": "229",
    "name": "AL-ARASH TECHNOLOGY",
    "address": "27 HARBONI BUILDING,OPP TOYIN MEDICAL,MOKOLA",
    "lat": "7.400481",
    "lng": "3.89262",
    "phone": "8078788889",
    "category": "Channel Partner",
    "date": "00/00/00",
    "city": "Ibadan"
  },
  {
    "id": "230",
    "name": "LAPLACE NETWORK",
    "address": "11, Tolaf building, Quenn Elizabeth Rd, Mokola",
    "lat": "7.400206",
    "lng": "3.892335",
    "phone": "8132375666",
    "category": "Channel Partner",
    "date": "00/00/00",
    "city": "Ibadan"
  },
  {
    "id": "231",
    "name": "IDEAL KONSULT",
    "address": "COCOA MALL IBADAN",
    "lat": "7.386847",
    "lng": "3.879704",
    "phone": "9034450431",
    "category": "Channel Partner",
    "date": "00/00/00",
    "city": "Ibadan"
  },
  {
    "id": "232",
    "name": "ALPHA SPEEDLINK",
    "address": "133 POLY- ELEYELE RD, IBADAN",
    "lat": "7.419679",
    "lng": "3.875863",
    "phone": "8061371061",
    "category": "Channel Partner",
    "date": "00/00/00",
    "city": "Ibadan"
  },
  {
    "id": "233",
    "name": "GIZMO WORLD",
    "address": "1, TOWN PLANNING WAY, RING RD",
    "lat": "7.368579",
    "lng": "3.859854",
    "phone": "7062909040",
    "category": "Channel Partner",
    "date": "00/00/00",
    "city": "Ibadan"
  },
  {
    "id": "234",
    "name": "GENERAL SUPERMARKET",
    "address": "GENERAL SUPERMARKET ,ASIPA",
    "lat": "7.330472",
    "lng": "3.849639",
    "phone": "7039093689",
    "category": "Channel Partner",
    "date": "00/00/00",
    "city": "Ibadan"
  },
  {
    "id": "235",
    "name": "TOP SUCCESS ",
    "address": "IWO RD, ROUNDABOUT IBADAN",
    "lat": "7.403328",
    "lng": "3.942719",
    "phone": "8116280519",
    "category": "Channel Partner",
    "date": "00/00/00",
    "city": "Ibadan"
  },
  {
    "id": "236",
    "name": "DEMMY GLOBAL ",
    "address": "90/91 ,CHOICE PLAZA, CHALLENGE",
    "lat": "7.34707",
    "lng": "3.87886",
    "phone": "8033121728",
    "category": "Channel Partner",
    "date": "00/00/00",
    "city": "Ibadan"
  },
  {
    "id": "237",
    "name": "OMINET",
    "address": "OKE -ITUNU SABO ROAD ",
    "lat": "7.401053",
    "lng": "3.8901",
    "phone": "8020888665",
    "category": "Channel Partner",
    "date": "00/00/00",
    "city": "Ibadan"
  },
  {
    "id": "238",
    "name": "COVENANT BLESSING",
    "address": "NO 24 NTA SHOPPING COMPLEX ",
    "lat": "7.396542",
    "lng": "3.917702",
    "phone": "8032035695",
    "category": "Channel Partner",
    "date": "00/00/00",
    "city": "Ibadan"
  },
  {
    "id": "239",
    "name": "CALLUS MILLER",
    "address": "NO 14 ABA ROAD",
    "lat": "4.8175717",
    "lng": "7.0094554",
    "phone": "8033215981",
    "category": "Channel Partner",
    "date": "00/00/00",
    "city": "Port-Harcourt"
  },
  {
    "id": "240",
    "name": "CALLUSMILLER",
    "address": "26 ABA ROAD BY PRESIDENTIAL JUNCTION",
    "lat": "4.8175717",
    "lng": "7.0094554",
    "phone": "08033215981",
    "category": "Channel Partner",
    "date": "00/00/00",
    "city": "Port-Harcourt"
  },
  {
    "id": "241",
    "name": "e-INFOTECH SYSTEM AND TELECOMMUNICATIONS LTD",
    "address": "36 ISIOKPO STREET DLINE PORTHARCOURT",
    "lat": "4.8028354",
    "lng": "7.0038677",
    "phone": "08032703288",
    "category": "Channel Partner",
    "date": "00/00/00",
    "city": "Port-Harcourt"
  },
  {
    "id": "242",
    "name": "FINET COMMUNICATIONS LTD",
    "address": "289, ABA ROAD,1ST ARTILLERY BESIDES ECOBANK RUMUOGBA",
    "lat": "4.8175666",
    "lng": "7.0097138",
    "phone": "8098265467",
    "category": "Channel Partner",
    "date": "00/00/00",
    "city": "Port-Harcourt"
  },
  {
    "id": "243",
    "name": "LAMBERT TEKNOKAL",
    "address": "SONIA MALL ESTATE ROAD WOJI PHC,RIVERS STATE",
    "lat": "4.8283388",
    "lng": "7.0579108",
    "phone": "08060166161",
    "category": "Channel Partner",
    "date": "00/00/00",
    "city": "Port-Harcourt"
  },
  {
    "id": "244",
    "name": "MATTORIS SUPAMARTS LIMITED",
    "address": "18 IWOWARI STREET OFF PETER ODILLI ROAD TRANS-AMADI PHC",
    "lat": "4.7967816",
    "lng": "7.0422123",
    "phone": "07066813773",
    "category": "Channel Partner",
    "date": "00/00/00",
    "city": "Port-Harcourt"
  },
  {
    "id": "245",
    "name": "NEXTSOLUTIONS",
    "address": "5 SANI ABACHA RD GRA PHASE III PHC",
    "lat": "4.8148654",
    "lng": "6.9899595",
    "phone": "08098077775",
    "category": "Channel Partner",
    "date": "00/00/00",
    "city": "Port-Harcourt"
  },
  {
    "id": "246",
    "name": "PARK \"N\" SHOP",
    "address": "97 , GARRISON OFF ABA ROAD",
    "lat": "4.8178947",
    "lng": "7.0105055",
    "phone": "08057495261",
    "category": "Channel Partner",
    "date": "00/00/00",
    "city": "Port-Harcourt"
  },
  {
    "id": "247",
    "name": "SLOT SYSTEMS",
    "address": "178, ABA ROAD  WATERLINES ARETA PLAZA ",
    "lat": "4.8186343",
    "lng": "7.0088934",
    "phone": "08064200266",
    "category": "Channel Partner",
    "date": "00/00/00",
    "city": "Port-Harcourt"
  },
  {
    "id": "248",
    "name": "USSOLUTIONS",
    "address": "NO 8 OLD ABA ROAD RUMUOGBA",
    "lat": "4.8432182",
    "lng": "7.0407352",
    "phone": "8035201320",
    "category": "Channel Partner",
    "date": "00/00/00",
    "city": "Port-Harcourt"
  },
  {
    "id": "249",
    "name": "Olu-Obasanjo",
    "address": "NO17 OLU OBASANJO ROAD BY WATER LINES PHC",
    "lat": "4.81534",
    "lng": "7.005364",
    "phone": "8113895837",
    "category": "Shop",
    "date": "00/00/00",
    "city": "Port-Harcourt"
  },
  {
    "id": "250",
    "name": "PHC Mall",
    "address": "PORTHARCOURT MALL ABA ROAD PORTHARCOURT",
    "lat": "4.775329",
    "lng": "7.013451",
    "phone": "9087800030",
    "category": "Shop",
    "date": "00/00/00",
    "city": "Port-Harcourt"
  },
  {
    "id": "251",
    "name": "Ada George",
    "address": "15 NEW ADA GEORGE ROAD BY KALA JUNCTION",
    "lat": "4.835789",
    "lng": "6.976887",
    "phone": "9087829529",
    "category": "Shop",
    "date": "00/00/00",
    "city": "Port-Harcourt"
  },
  {
    "id": "252",
    "name": "Uniport",
    "address": "ENGLISH PARK ABUJA CAMPUS UNIPORT",
    "lat": "4.904515",
    "lng": "6.92091",
    "phone": "9087828684",
    "category": "Shop",
    "date": "00/00/00",
    "city": "Port-Harcourt"
  },
  {
    "id": "253",
    "name": "Total",
    "address": "171 ABA PORTHARCOURT ROAD PHC",
    "lat": "4.817162",
    "lng": "7.009084",
    "phone": "9087055420",
    "category": "Shop",
    "date": "00/00/00",
    "city": "Port-Harcourt"
  },
  {
    "id": "254",
    "name": "Phones and Gadget",
    "address": "52 IKWERE ROAD PORTHARCOURT",
    "lat": "4.89272",
    "lng": "7.002232",
    "phone": "9087828685",
    "category": "Shop",
    "date": "00/00/00",
    "city": "Port-Harcourt"
  },
  {
    "id": "255",
    "name": "Linjo",
    "address": "PLOT 268 PH/ABA EXPRESSWAY, RUMUOBIAKANI",
    "lat": "4.842071",
    "lng": "7.035",
    "phone": "08061679415",
    "category": "Shop",
    "date": "00/00/00",
    "city": "Port-Harcourt"
  },
  {
    "id": "256",
    "name": "TICEE CONNECT",
    "address": "NO. 54 PARAKOU CRESCENT WUSE 2",
    "lat": "9.075411",
    "lng": "7.466216",
    "phone": "08044449109",
    "category": "Channel Partner",
    "date": "00/00/00",
    "city": "Abuja"
  },
  {
    "id": "257",
    "name": "OLIVE INTEGRATED SERVICES LIMITED",
    "address": "SUITE A2, OTHNI PLAZA OPPOSITE ALI BROTHERS, WUSE ZONE 1",
    "lat": "9.05402",
    "lng": "7.46694",
    "phone": "8033025679",
    "category": "Channel Partner",
    "date": "00/00/00",
    "city": "Abuja"
  },
  {
    "id": "258",
    "name": " RAZ RESOURCES",
    "address": "SUITE 1, ABUJA SHOPPING COMPLEX, GARKI AREA 3",
    "lat": "9.03192",
    "lng": "7.48339",
    "phone": "08036309999",
    "category": "Channel Partner",
    "date": "00/00/00",
    "city": "Abuja"
  },
  {
    "id": "259",
    "name": "OT-MORNAT COMMUNICATION ",
    "address": "PLOT 458 AHMADU BELLO WAY GARKI AREA11",
    "lat": "9.07828",
    "lng": "7.47987",
    "phone": "07069686406",
    "category": "Channel Partner",
    "date": "00/00/00",
    "city": "Abuja"
  },
  {
    "id": "260",
    "name": "CHIKALVIA INTEGRATED NIGERIA LIMITED",
    "address": "GC33, OLD BANNEX PLAZA, BEHIND DIAMOND BANK",
    "lat": "9.08821",
    "lng": "7.43761",
    "phone": "07068533774",
    "category": "Channel Partner",
    "date": "00/00/00",
    "city": "Abuja"
  },
  {
    "id": "261",
    "name": "CORRESPONDENCE LTD",
    "address": "SUIT A1 PRIME PLAZA, ADETOKUNBO ADEMOLA CRESCENT",
    "lat": "9.07289",
    "lng": "7.46337",
    "phone": "08032031873",
    "category": "Channel Partner",
    "date": "00/00/00",
    "city": "Abuja"
  },
  {
    "id": "262",
    "name": "KORENET TECHNOLOGIES LTD",
    "address": "G-MUTA NIGERIA LTD,GARKI AREA 11",
    "lat": "9.035880",
    "lng": "7.498903",
    "phone": "8037038570",
    "category": "Channel Partner",
    "date": "00/00/00",
    "city": "Abuja"
  },
  {
    "id": "263",
    "name": "NU-DIMENSION MEDIA LTD",
    "address": "SHERIF PLAZA, AMINU KANO CERSENT",
    "lat": "9.0829",
    "lng": "7.46801",
    "phone": "8057409840",
    "category": "Channel Partner",
    "date": "00/00/00",
    "city": "Abuja"
  },
  {
    "id": "264",
    "name": "PHONZ",
    "address": "PHONZ ,WUSE II AMINU KANO EMAB",
    "lat": "9.08835",
    "lng": "7.43797",
    "phone": "8035885885",
    "category": "Channel Partner",
    "date": "00/00/00",
    "city": "Abuja"
  },
  {
    "id": "265",
    "name": "CONTENT OASIS",
    "address": "142 ADETOKUNBO ADEMOLA CREST WUSE II",
    "lat": "9.07885",
    "lng": "7.48065",
    "phone": "8050585136",
    "category": "Channel Partner",
    "date": "00/00/00",
    "city": "Abuja"
  },
  {
    "id": "266",
    "name": "SKYRAPH INTERGRATED SERVICES",
    "address": "SUITE 210B, SAMPA PLAZA NDOLA CRESCENT ",
    "lat": "9.05889",
    "lng": "7.45632",
    "phone": "8036776892",
    "category": "Channel Partner",
    "date": "00/00/00",
    "city": "Abuja"
  },
  {
    "id": "267",
    "name": "INVESTMENT PANACEA NETWORK LTD ",
    "address": "NO 69 ADEMOLA ADETOKUNBO, WUSE 2",
    "lat": "9.07034",
    "lng": "7.48242",
    "phone": "8037337270",
    "category": "Channel Partner",
    "date": "00/00/00",
    "city": "Abuja"
  },
  {
    "id": "268",
    "name": "WSC ENTERPRISES",
    "address": "SUITE A8 SHARIF PLAZA WUSE 2",
    "lat": "9.08271",
    "lng": "7.4677",
    "phone": "8035906439",
    "category": "Channel Partner",
    "date": "00/00/00",
    "city": "Abuja"
  },
  {
    "id": "269",
    "name": "JOTECH COMPUTER COMPANY LIMITED",
    "address": "FLAT6, ZAMANI ESTATE, OFF OLD KARU ROAD, MARABA",
    "lat": "9.08479",
    "lng": "7.47",
    "phone": "8170705767",
    "category": "Channel Partner",
    "date": "00/00/00",
    "city": "Abuja"
  },
  {
    "id": "270",
    "name": "OPTEX INVESTMENT LTD",
    "address": "46, KWAME NKRUMAH CRESCENT, ASOKORO",
    "lat": "9.03912",
    "lng": "7.52514",
    "phone": "8036131736",
    "category": "Channel Partner",
    "date": "00/00/00",
    "city": "Abuja"
  },
  {
    "id": "271",
    "name": "YISAB NIGERIA LIMITED",
    "address": "PLOT 1387, AMINU KANO CRESCENT WUSE 2",
    "lat": "9.07563",
    "lng": "7.4718",
    "phone": "8032037489",
    "category": "Channel Partner",
    "date": "00/00/00",
    "city": "Abuja"
  },
  {
    "id": "272",
    "name": "ALLPURPOSE PHARMACY & STORES LTD",
    "address": "PLOT 139 ADEMOLA ADETOKUNBO CRESCENT WUSE 2, ABUJA",
    "lat": "9.07882",
    "lng": "7.47963",
    "phone": "8069616101",
    "category": "Channel Partner",
    "date": "00/00/00",
    "city": "Abuja"
  },
  {
    "id": "273",
    "name": "UNICAST GLOBAL SERVICES",
    "address": "SUITE 23, HUSY PLAZA OFF NEWS ENGINEERING, DAWAKI",
    "lat": "9.12425",
    "lng": "7.39684",
    "phone": "07036860323",
    "category": "Channel Partner",
    "date": "00/00/00",
    "city": "Abuja"
  },
  {
    "id": "274",
    "name": "FIRST REGIONAL SOLUTION LTD",
    "address": "NO. 5 JAMARA CLOSE, GARKI 2 ABUJA",
    "lat": "9.032229",
    "lng": "7.496116",
    "phone": "08116576458",
    "category": "Channel Partner",
    "date": "00/00/00",
    "city": "Abuja"
  },
  {
    "id": "275",
    "name": "SNS BANGUI",
    "address": "HEAD OFFICE, NO. 15 BANGUI STREET, NEAR JEVENIK RESTAURAN, OFF  ADETOKUNBO ADEMOLA CRESCENT BANGUI",
    "lat": "9.069029",
    "lng": "7.48143",
    "category": "Shop",
    "date": "00/00/00",
    "city": "Abuja"
  },
  {
    "id": "276",
    "name": "SNS OTI CARPET",
    "address": "FIRST FLOOR, OTIS CARPET BUILDING, 142 ADETOKUNBO ADEMOLA CRESCENT  ",
    "lat": "9.078774",
    "lng": "7.480281",
    "category": "Shop",
    "date": "00/00/00",
    "city": "Abuja"
  },
  {
    "id": "277",
    "name": "SNS MAITAMA",
    "address": "FIRST FLOOR, 911 MALL, 70 USUMA STREET, OPP. SUMMERSET HOTEL, OFF GANA STREET",
    "lat": "9.077028",
    "lng": "7.497504",
    "category": "Shop",
    "date": "00/00/00",
    "city": "Abuja"
  },
  {
    "id": "278",
    "name": "SNS GWARIMPA",
    "address": "G08 PATHFIELD MALL, 4TH AVENUE, BESIDE CHAMBIAN PLAZA",
    "lat": "9.117601",
    "lng": "7.40549",
    "category": "Shop",
    "date": "00/00/00",
    "city": "Abuja"
  },
  {
    "id": "279",
    "name": "SNS KARU",
    "address": "FIRST FLOOR, KARU SHOPPING PLAZA, NEAR KARU POLICE STATION",
    "lat": "9.013796",
    "lng": "7.563353",
    "category": "Shop",
    "date": "00/00/00",
    "city": "Abuja"
  },
  {
    "id": "280",
    "name": "ANS KUBWA",
    "address": "KABON COURT SHOPPING COMPLEX, OPP UNITY CLINIC, BY PHASE 4 BRIDGE,  GADO NASCO ROAD",
    "lat": "9.15358",
    "lng": "7.33997",
    "category": "Shop",
    "date": "00/00/00",
    "city": "Abuja"
  },
  {
    "id": "281",
    "name": "SNS APO",
    "address": "APO SHOPRITE",
    "lat": "9.013455",
    "lng": "7.491185",
    "category": "Shop",
    "date": "00/00/00",
    "city": "Abuja"
  },
  {
    "id": "282",
    "name": "AIRPORT-KIOSK",
    "address": "DEPARTURE WING, NNAMDI AZIKIWE AIRPORT, ABUJA",
    "lat": "9.004025",
    "lng": "7.269052",
    "category": "Shop",
    "date": "00/00/00",
    "city": "Abuja"
  },
  {
    "id": "283",
    "name": "TASKA ENERGY",
    "address": "TIPER GARAGE,BESIDE HOLLYWOOD, AKALA EXPRESS",
    "lat": "7.407333",
    "lng": "3.868282",
    "phone": "8101740009",
    "category": "Channel Partner",
    "date": "00/00/00",
    "city": "Ibadan"
  },
  {
    "id": "284",
    "name": "EVEREST TECHNOLOGIES",
    "address": "NO 1 ARE  AVENUE, BODIJA",
    "lat": "7.423259",
    "lng": "3.911097",
    "phone": "8023210409",
    "category": "Channel Partner",
    "date": "00/00/00",
    "city": "Ibadan"
  },
  {
    "id": "285",
    "name": "TRUCORD",
    "address": "Ance building annex,Jericho nursing Home area,Jericho",
    "lat": "7.399577",
    "lng": "3.871212",
    "phone": "8023080855",
    "category": "Channel Partner",
    "date": "00/00/00",
    "city": "Ibadan"
  },
  {
    "id": "286",
    "name": "NETPOINT",
    "address": "FAVORS BUILDING, BODIJA",
    "lat": "7.418355",
    "lng": "3.911233",
    "phone": "8061249807",
    "category": "Channel Partner",
    "date": "00/00/00",
    "city": "Ibadan"
  },
  {
    "id": "287",
    "name": "YIELD SYSTEM",
    "address": "OPP UI IBADAN (SAMSUNG EEXP.STORES)",
    "lat": "7.440538",
    "lng": "3.907129",
    "phone": "7030127697",
    "category": "Channel Partner",
    "date": "00/00/00",
    "city": "Ibadan"
  },
  {
    "id": "288",
    "name": "ROYAL HARMONY",
    "address": "Abike house, Apete",
    "lat": "7.448125",
    "lng": "3.885279",
    "phone": "8030658157",
    "category": "Channel Partner",
    "date": "00/00/00",
    "city": "Ibadan"
  },
  {
    "id": "289",
    "name": "GREEN OLIVE",
    "address": "103,POLYTECHNUC RD,SANGO IBADAN",
    "lat": "7.424467",
    "lng": "3.889366",
    "phone": "8034054700",
    "category": "Channel Partner",
    "date": "00/00/00",
    "city": "Ibadan"
  },
  {
    "id": "290",
    "name": "CORNERSTONE",
    "address": "84B ALAAFIN AVENUE, OLUYOLE EXTENSION",
    "lat": "7.364976",
    "lng": "3.887025",
    "phone": "9086390733",
    "category": "Channel Partner",
    "date": "00/00/00",
    "city": "Ibadan"
  },
  {
    "id": "291",
    "name": "MINEGEM SUPERMARKET",
    "address": "RAO COMPLEX, ORITA",
    "lat": "7.340718",
    "lng": "3.871217",
    "phone": "8035538663",
    "category": "Channel Partner",
    "date": "00/00/00",
    "city": "Ibadan"
  },
  {
    "id": "292",
    "name": "NATHMULTI",
    "address": "BLOCK1, PLOT1,AKALA WAY, AKOBO",
    "lat": "7.442829",
    "lng": "3.952109",
    "phone": "8034444859",
    "category": "Channel Partner",
    "date": "00/00/00",
    "city": "Ibadan"
  },
  {
    "id": "293",
    "name": "GADGET",
    "address": "17, QUEEN ELIZABETH RD, MOKOLA",
    "lat": "7.400525",
    "lng": "3.891976",
    "phone": "8088979797",
    "category": "Channel Partner",
    "date": "00/00/00",
    "city": "Ibadan"
  },
  {
    "id": "294",
    "name": "OMOFADE VENTURES",
    "address": "NO I COMMERCIAL PLOT ,PDCOS ESTATE AKOBO",
    "lat": "7.430663",
    "lng": "3.941214",
    "phone": "8181054662",
    "category": "Channel Partner",
    "date": "00/00/00",
    "city": "Ibadan"
  },
  {
    "id": "295",
    "name": "HARMONY LINKS",
    "address": "INSIDE CONOIL FILLING STATION MOKOLA ROUNDABOUT",
    "lat": "7.347857",
    "lng": "3.878642",
    "phone": "8034237040",
    "category": "Channel Partner",
    "date": "00/00/00",
    "city": "Ibadan"
  },
  {
    "id": "296",
    "name": "SNS RING ROD",
    "address": "95, M.KO.ABIOLA RD, RING RD",
    "lat": "7.358311",
    "lng": "3.871981",
    "phone": "8115394204",
    "category": "Channel Partner",
    "date": "00/00/00",
    "city": "Ibadan"
  },
  {
    "id": "297",
    "name": "TORD TECHNOLOGY",
    "address": "393A HERBERT MACAULAY WAY, BESIDE SLOT, SABO B/STOP, YABA, LAGOS",
    "lat": "6.511263",
    "lng": "3.377424",
    "phone": "",
    "category": "Channel Partner",
    "date": "00/00/00",
    "city": "Lagos"
  },
  {
    "id": "298",
    "name": "COBASING",
    "address": "52 DIYA STREET, GBAGADA,LAGOS.",
    "lat": "6.555346",
    "lng": "3.389303",
    "phone": "",
    "category": "Channel Partner",
    "date": "00/00/00",
    "city": "Lagos"
  },
  {
    "id": "299",
    "name": "LADORITE SYSTEMS",
    "address": "30/32 ADEKUNLE BANJO AVENUE, MAGODO 11, LAGOS",
    "lat": "6.614621",
    "lng": "3.371745",
    "phone": "",
    "category": "Channel Partner",
    "date": "00/00/00",
    "city": "Lagos"
  },
  {
    "id": "300",
    "name": "GALANT COMMUNICATIONS",
    "address": "88 AGIDI ROAD, BESIDE 1ST BANK, ALAPERE ROUNDABOUT, ALAPERE, KETU, LAGOS.",
    "lat": "6.587883",
    "lng": "3.398962",
    "phone": "",
    "category": "Channel Partner",
    "date": "00/00/00",
    "city": "Lagos"
  },
  {
    "id": "301",
    "name": "LAPTOP PLACE",
    "address": "29/31 AWOLOWO ROAD, IKEJA, LAGOS",
    "lat": "6.597848",
    "lng": "3.341231",
    "phone": "",
    "category": "Channel Partner",
    "date": "00/00/00",
    "city": "Lagos"
  },
  {
    "id": "302",
    "name": "KEMASHO VENTURES LTD",
    "address": "PLOT 7 ISHERI ROAD BERGER",
    "lat": "6.640179",
    "lng": "3.368162",
    "phone": "",
    "category": "Channel Partner",
    "date": "00/00/00",
    "city": "Lagos"
  },
  {
    "id": "301",
    "name": "PELRASH LIMITED",
    "address": "8, TIJANI ASHOGBON STREET ILAJE BARIGA",
    "lat": "6.534547",
    "lng": "3.39129",
    "phone": "",
    "category": "Channel Partner",
    "date": "00/00/00",
    "city": "Lagos"
  },
  {
    "id": "302",
    "name": "CONNECT ZONE",
    "address": "153, IJU ROAD, FAGBA",
    "lat": "6.655021",
    "lng": "3.323289",
    "phone": "",
    "category": "Channel Partner",
    "date": "00/00/00",
    "city": "Lagos"
  },
  {
    "id": "303",
    "name": "MOSPRINT",
    "address": "153, IJU ROAD, FAGBA",
    "lat": "6.530351",
    "lng": "3.342024",
    "phone": "",
    "category": "Channel Partner",
    "date": "00/00/00",
    "city": "Lagos"
  },
  {
    "id": "304",
    "name": "LGX011-FFTECH",
    "address": "22 AYANGBUREN ROAD OJUBEDE BUS STOP IKORODU",
    "lat": "6.62612",
    "lng": "3.484216",
    "phone": "",
    "category": "Channel Partner",
    "date": "00/00/00",
    "city": "Lagos"
  },
  {
    "id": "305",
    "name": "SDMA NETWORKS",
    "address": "BLOCK A1C1 SUITE1, SURA SHOPPING COMPLEX, OBALENDE, LAGOS STATE",
    "lat": "6.455768",
    "lng": "3.404285",
    "phone": "",
    "category": "Channel Partner",
    "date": "00/00/00",
    "city": "Lagos"
  },
  {
    "id": "306",
    "name": "LGX013-PINACLE",
    "address": "1 AKOWONJO ROAD, EGBEDA",
    "lat": "6.59971",
    "lng": "3.292022",
    "phone": "",
    "category": "Channel Partner",
    "date": "00/00/00",
    "city": "Lagos"
  },
  {
    "id": "307",
    "name": "LGX014-DECAFE",
    "address": "UNILAG MAIN SHOPPING COMPLEX",
    "lat": "6.515117",
    "lng": "3.376562",
    "phone": "",
    "category": "Channel Partner",
    "date": "00/00/00",
    "city": "Lagos"
  },
  {
    "id": "308",
    "name": "ICELLMOBILE PHONES LIMITED",
    "address": "1 IKIAKARE ROAD OFF ISOLO ROAD, ISOLO",
    "lat": "6.531954",
    "lng": "3.335697",
    "phone": "",
    "category": "Channel Partner",
    "date": "00/00/00",
    "city": "Lagos"
  },
  {
    "id": "309",
    "name": "TESTED OK VENTURES",
    "address": "74, AGBADO ROAD, JANKARA IJAIYE OJOKORO LAGOS",
    "lat": "6.673007",
    "lng": "3.318481",
    "phone": "",
    "category": "Channel Partner",
    "date": "00/00/00",
    "city": "Lagos"
  },
  {
    "id": "310",
    "name": "OPEBI",
    "address": "15/17, OLAJUWON HOUSE, OPEBI ROAD, IKEJA, LAGOS",
    "lat": "6.594357",
    "lng": "3.356937",
    "phone": "",
    "category": "Shops",
    "date": "00/00/00",
    "city": "Lagos"
  },
  {
    "id": "311",
    "name": "OPEBI",
    "address": "SUITE 45, OGBA SHOPPING COMPLEX, IJAIYE ROAD, OGBA, LAGOS",
    "lat": "6.632704",
    "lng": "3.341303",
    "phone": "",
    "category": "Shops",
    "date": "00/00/00",
    "city": "Lagos"
  },
  {
    "id": "312",
    "name": "IKORODU",
    "address": "132, IYANIWURA HOUSE, LAGOS ROAD, IKORODU, LAGOS",
    "lat": "6.625484",
    "lng": "3.484051",
    "phone": "",
    "category": "Shops",
    "date": "00/00/00",
    "city": "Lagos"
  },
  {
    "id": "313",
    "name": "ABULE-EGBA",
    "address": "SHOP 28, CROSSWAY SHOPPING COMPLEX, FIRST FLOOR, NO, 3, CHARITY ROAD, ABULE-EGBA, LAGOS",
    "lat": "6.647224",
    "lng": "3.306077",
    "phone": "",
    "category": "Shops",
    "date": "00/00/00",
    "city": "Lagos"
  },
  {
    "id": "314",
    "name": "LEKKI",
    "address": "BLOCK 4A, SAMIT PLAZA, ADMIRALTY WAY, LEKKI PHASE I, LEKKI, LAGOS",
    "lat": "6.434404",
    "lng": "3.480516",
    "phone": "",
    "category": "Shops",
    "date": "00/00/00",
    "city": "Lagos"
  },
  {
    "id": "315",
    "name": "APAPA",
    "address": "SHOP 41,FIRST FLOOR,LEFT WING,APAPA SHOPPING MALL.PARKLANE APAPA",
    "lat": "6.447781",
    "lng": "3.362666",
    "phone": "",
    "category": "Shops",
    "date": "00/00/00",
    "city": "Lagos"
  },
  {
    "id": "316",
    "name": "SLOT SAKA TINUBU",
    "address": "SLOT SAKA TINUBU",
    "lat": "6.447781",
    "lng": "3.362666",
    "phone": "",
    "category": "Kiosks",
    "date": "00/00/00",
    "city": "Lagos"
  },
  {
    "id": "317",
    "name": "SLOT SHOPRITE IKEJA",
    "address": "IKEJA CITY MALL , ALAUSA IKEJA",
    "lat": "6.614177",
    "lng": "3.357912",
    "phone": "",
    "category": "Kiosks",
    "date": "00/00/00",
    "city": "Lagos"
  },
  {
    "id": "318",
    "name": "LEKKI SHOPRITE",
    "address": "PALMS SHOPPING MALL LEKKI",
    "lat": "6.439687",
    "lng": "3.496162",
    "phone": "",
    "category": "Kiosks",
    "date": "00/00/00",
    "city": "Lagos"
  },
  {
    "id": "319",
    "name": "TOTAL ONIGBONGBO",
    "address": "Mobolaji Bank Anthony Way, Ikeja GRA, Lagos",
    "lat": "6.59066",
    "lng": "3.35108",
    "phone": "",
    "category": "Kiosks",
    "date": "00/00/00",
    "city": "Lagos"
  },
  {
    "id": "320",
    "name": "SLOT AJAH",
    "address": "No 1A Addo Road Ajah, Opposite Olumegbon's palace at Addo Road Close to Ajah Roundabout.",
    "lat": "6.45306",
    "lng": "3.39583",
    "phone": "",
    "category": "Kiosks",
    "date": "00/00/00",
    "city": "Lagos"
  },
  {
    "id": "321",
    "name": "JUSTRITE BERGER",
    "address": "Kosoko Street, Ojodu Berger, Ojodu, Lagos",
    "lat": "6.64111",
    "lng": "3.36915",
    "phone": "",
    "category": "Kiosks",
    "date": "00/00/00",
    "city": "Lagos"
  },
  {
    "id": "322",
    "name": "JUSTRITE IKORODU",
    "address": "Klm 4, Idiroko Road, Ogolonto bus stop, Ikorodu",
    "lat": "6.619689",
    "lng": "3.475285",
    "phone": "",
    "category": "Kiosks",
    "date": "00/00/00",
    "city": "Lagos"
  },
  {
    "id": "323",
    "name": "JUSTRITE ABULEGBA",
    "address": "Abule Egba Roundabout, Abule Egba",
    "lat": "6.64919",
    "lng": "3.30254",
    "phone": "",
    "category": "Kiosks",
    "date": "00/00/00",
    "city": "Lagos"
  },
  {
    "id": "324",
    "name": "JUSTRITE_DOPEMU",
    "address": "23 Okeho street Dopemu",
    "lat": "6.52411",
    "lng": "3.32215",
    "phone": "",
    "category": "Kiosks",
    "date": "00/00/00",
    "city": "Lagos"
  },
  {
    "id": "325",
    "name": "JUSTRITE_OTA",
    "address": "Kilometer 4, Idiroko Road, Sango Ota",
    "lat": "6.7052",
    "lng": "2.90309",
    "phone": "",
    "category": "Kiosks",
    "date": "00/00/00",
    "city": "Lagos"
  },
  {
    "id": "326",
    "name": "RENEE SUPERMARKET",
    "address": "1 Cameroon Road, Off Gerard Avenue",
    "lat": "6.458951",
    "lng": "3.426649",
    "phone": "",
    "category": "Kiosks",
    "date": "00/00/00",
    "city": "Lagos"
  },
  {
    "id": "326",
    "name": "CMART SUPERMARKET",
    "address": "1 Babafemi Osoba Cres, Lekki Phase I",
    "lat": "6.4579",
    "lng": "3.4694",
    "phone": "",
    "category": "Kiosks",
    "date": "00/00/00",
    "city": "Lagos"
  },
  {
    "id": "327",
    "name": "TRIMART SUPERMARKET",
    "address": "12 Furo Ezimora St, Lekki Phase I ",
    "lat": "6.433597",
    "lng": "3.463608",
    "phone": "",
    "category": "Kiosks",
    "date": "00/00/00",
    "city": "Lagos"
  },
  {
    "id": "328",
    "name": "WESTGATE",
    "address": "1 Apostolic Close, Isheri, Ikosi",
    "lat": "6.61257",
    "lng": "3.41131",
    "phone": "",
    "category": "Kiosks",
    "date": "00/00/00",
    "city": "Lagos"
  },
  {
    "id": "329",
    "name": "CECI SUPERMARKET",
    "address": "Unipetrol Rd, Satellite Town",
    "lat": "6.45347",
    "lng": "3.26978",
    "phone": "",
    "category": "Kiosks",
    "date": "00/00/00",
    "city": "Lagos"
  },
  {
    "id": "330",
    "name": "JUSTRITE_IYANAIPAJA",
    "address": "55 ,Ipaja Road, Alaguntan",
    "lat": "6.42891",
    "lng": "3.4748",
    "phone": "",
    "category": "Kiosks",
    "date": "00/00/00",
    "city": "Lagos"
  },
  {
    "id": "331",
    "name": "KARMA_OTA",
    "address": "NO 13 idi iroko  road sango otta",
    "lat": "6.7052",
    "lng": "2.90309",
    "phone": "",
    "category": "Kiosks",
    "date": "00/00/00",
    "city": "Lagos"
  },
  {
    "id": "332",
    "name": "3C HUB_MARINA",
    "address": "182/ 184 BROAD STREET, LAGOS ISLAND",
    "lat": "6.45306",
    "lng": "3.39003",
    "phone": "",
    "category": "Kiosks",
    "date": "00/00/00",
    "city": "Lagos"
  },
  {
    "id": "333",
    "name": "3C HUB_AJAH",
    "address": "34/36 BISI AFOLABI STREET, BESIDE WEMA BANK, ALESH HOTEL, AJAH LAGOS STATE NIGERA",
    "lat": "6.491547",
    "lng": " 3.584442",
    "phone": "",
    "category": "Kiosks",
    "date": "00/00/00",
    "city": "Lagos"
  },
  {
    "id": "334",
    "name": "3C HUB_IYANA IPAJA",
    "address": "NEW IPAJA ROAD, IYANA IPAJA ROUND ABOUT",
    "lat": "6.61522",
    "lng": "3.29793",
    "phone": "",
    "category": "Kiosks",
    "date": "00/00/00",
    "city": "Lagos"
  },
  {
    "id": "335",
    "name": "3C HUB_IKOTUN",
    "address": "1 DALEKO STREET IKOTUN ISOLO ROAD",
    "lat": "6.53111",
    "lng": "3.34233",
    "phone": "",
    "category": "Kiosks",
    "date": "00/00/00",
    "city": "Lagos"
  },
  {
    "id": "336",
    "name": "3C HUB_IKOTUN",
    "address": "1 DALEKO STREET IKOTUN ISOLO ROAD",
    "lat": "6.53111",
    "lng": "3.34233",
    "phone": "",
    "category": "Kiosks",
    "date": "00/00/00",
    "city": "Lagos"
  },
  {
    "id": "337",
    "name": "3C HUB_SANGO",
    "address": "22B ABEOKUTA EXPRESSWAY OGUN STATE",
    "lat": "6.69371",
    "lng": "3.25651",
    "phone": "",
    "category": "Kiosks",
    "date": "00/00/00",
    "city": "Lagos"
  },
  {
    "id": "338",
    "name": "3C HUB_IKEJA",
    "address": "4A OLU-KOLEOSHO STREET, OFF SIMBIAT ABIOLA WAY, IKEJA LAGOS STATE",
    "lat": "6.578885",
    "lng": "3.346888",
    "phone": "",
    "category": "Kiosks",
    "date": "00/00/00",
    "city": "Lagos"
  },
  {
    "id": "339",
    "name": "3C HUB_COMPUTER VILLAGE",
    "address": "SHOP 9 OTIGBA STREET, COMPUTER VILLAGE, IKEJA",
    "lat": "6.585885",
    "lng": "3.356158",
    "phone": "",
    "category": "Kiosks",
    "date": "00/00/00",
    "city": "Lagos"
  },
  {
    "id": "340",
    "name": "3C HUB_KODESHO IKEJA",
    "address": "17A, KODESHO STREET, OPP KFC, IKEJA, LAGOS",
    "lat": "6.59254",
    "lng": "3.34266",
    "phone": "",
    "category": "Kiosks",
    "date": "00/00/00",
    "city": "Lagos"
  },
  {
    "id": "341",
    "name": "3C HUB_SAKA TINUBU",
    "address": "11, SAKA TINUBU, VICTORIA ISLAND, LAGOS",
    "lat": "6.42705",
    "lng": "3.42009",
    "phone": "",
    "category": "Kiosks",
    "date": "00/00/00",
    "city": "Lagos"
  },
  {
    "id": "342",
    "name": "3Chub_Mushin",
    "address": "1, A&B Isolo Road, Mushin, Lagos",
    "lat": "6.5281",
    "lng": "3.35083",
    "phone": "",
    "category": "Kiosks",
    "date": "00/00/00",
    "city": "Lagos"
  },
  {
    "id": "343",
    "name": "Justrite_Bariga",
    "address": "15, Obadina Street, Bariga, Lagos, Nigeria",
    "lat": "6.52097",
    "lng": "3.38184",
    "phone": "",
    "category": "Kiosks",
    "date": "00/00/00",
    "city": "Lagos"
  },
  {
    "id": "344",
    "name": "Slot-Lg-Computervillage",
    "address": "15/19 Ola Ayeni St, Computer Village",
    "lat": "6.59506",
    "lng": "3.33998",
    "phone": "",
    "category": "Kiosks",
    "date": "00/00/00",
    "city": "Lagos"
  },
  {
    "id": "345",
    "name": "Total Pump Alakuko",
    "address": "Lagos Abeokuta Express Road, Ojokoro Lga, Alakuko, Near Alakuko Police Station",
    "lat": "7.150018",
    "lng": "3.3212",
    "phone": "",
    "category": "Kiosks",
    "date": "00/00/00",
    "city": "Lagos"
  },
  {
    "id": "346",
    "name": "Total Pump Lekki",
    "address": "The Palms Shopping Mall, Lekki/ Epe Expressway",
    "lat": "6.435883",
    "lng": "3.450966",
    "phone": "",
    "category": "Kiosks",
    "date": "00/00/00",
    "city": "Lagos"
  },
    {
        "id": "347",
        "name": "KURIOS-SAT ENTERPRISES",
        "address": "SUITE 20 VIEW VALLEY PLAZA, IS9 OBAFEMI AWOLOWO WAY IKORODU",
        "lat": "6.619413",
        "lng": "3.510454",
        "phone": "",
        "category": "Dealer KRO",
        "date": "00/00/00",
        "city": "Lagos"
    },
    {
        "id": "348",
        "name": "OLA-LEK TRADING COMPANY",
        "address": "20, ASSOCIATION ROAD, APAKA OMO ONILE IKORODU LAGOS",
        "lat": "6.49057",
        "lng": "3.185261",
        "phone": "",
        "category": "Dealer KRO",
        "date": "00/00/00",
        "city": "Lagos"
    },
    {
        "id": "349",
        "name": "FLEXTEK GLOBAL SERVICES LIMITED",
        "address": "105 & 106 NEW EBUTE MODERN MARKET, IKORODU",
        "lat": "6.619413",
        "lng": "3.510454",
        "phone": "",
        "category": "Dealer KRO",
        "date": "00/00/00",
        "city": "Lagos"
    },
    {
        "id": "350",
        "name": "CORSICAN BROTHER ",
        "address": "165, JIMAW PLAZA LAGOS ROAD, IKORODU",
        "lat": "6.658561",
        "lng": "3.519499",
        "phone": "",
        "category": "Dealer KRO",
        "date": "00/00/00",
        "city": "Lagos"
    },
    {
        "id": "351",
        "name": "WEMCOMAFRICA TECHNOLOGY",
        "address": "22 AYANGBUREN ROAD OJUBEDE BUS STOP IKORODU",
        "lat": "6.625693",
        "lng": "3.484227",
        "phone": "",
        "category": "Dealer KRO",
        "date": "00/00/00",
        "city": "Lagos"
    },
    {
        "id": "352",
        "name": "ADYSHAANS LIMITED",
        "lat": "6.464106",
        "lng": 3.534441,
        "phone": "",
        "category": "Dealer KRO",
        "date": "00/00/00",
        "city": "Lagos"
    },
    {
        "id": "353",
        "name": "DATA POINT DYNAMIX",
        "address": "B179 ROAD, ROAD 6 IKOTA SHOPPING COMPLEX VGC",
        "lat": "6.464106",
        "lng": "3.534441",
        "phone": "",
        "category": "Dealer KRO",
        "date": "00/00/00",
        "city": "Lagos"
    },
    {
        "id": "354",
        "name": "HALVARGE CONCEPTS",
        "address": "1ST FLOOR JEFERRY PLAZA AJIWE ABRAHAM ADESANYA ROUNDABOUT",
        "lat": "6.469777",
        "lng": "3.585312",
        "phone": "",
        "category": "Dealer KRO",
        "date": "00/00/00",
        "city": "Lagos"
    },
    {
        "id": "355",
        "name": "UJE AND GROM",
        "address": "A1, AKEEDAT MODEL SCHOOL BETWEEN MEGA CHIKEN, IKOTA VILLA ESTATE, AJAH",
        "lat": "6.449364",
        "lng": "3.553566",
        "phone": "",
        "category": "Dealer KRO",
        "date": "00/00/00",
        "city": "Lagos"
    },
    {
        "id": "356",
        "name": "TIKADO INVESTMENT LIMITED",
        "address": "SHOP 37, ALESI SHOPPING COMPLEX AJAH ",
        "lat": "6.472516",
        "lng": "3.568616",
        "phone": "",
        "category": "Dealer KRO",
        "date": "00/00/00",
        "city": "Lagos"
    },
    {
        "id": "357",
        "name": "FIRSTGRADE TELECOMS SERVICES",
        "address": "MANJA-MANJA CENTRE OSAPA LONDON LEKKI",
        "lat": "6.44134",
        "lng": "3.512487",
        "phone": "",
        "category": "Dealer KRO",
        "date": "00/00/00",
        "city": "Lagos"
    },
    {
        "id": "358",
        "name": "KAWAK VENTURES",
        "address": "38 IJEGUN ROAD IKOTUN",
        "lat": "6.539978",
        "lng": "3.284053",
        "phone": "",
        "category": "Dealer KRO",
        "date": "00/00/00",
        "city": "Lagos"
    },
    {
        "id": "359",
        "name": "POINTEK",
        "address": "6, MEDICAL ROAD, IKEJA ,LAGOS",
        "lat": "6.606856",
        "lng": "3.349942",
        "phone": "",
        "category": "Dealer KRO",
        "date": "00/00/00",
        "city": "Lagos"
    },
    {
        "id": "360",
        "name": "MICRO STATIONS",
        "address": "8 OTIGBA STREET COMPUTR VILLAGE",
        "lat": "6.595522",
        "lng": "3.34022",
        "phone": "",
        "category": "Dealer KRO",
        "date": "00/00/00",
        "city": "Lagos"
    },
    {
        "id": "361",
        "name": "VIJEBA INVESTMENT LIMITED",
        "address": "13 ANIFOWOSHE STREET, IKEJA",
        "lat": "6.598577",
        "lng": "3.337601",
        "phone": "",
        "category": "Dealer KRO",
        "date": "00/00/00",
        "city": "Lagos"
    },
    {
        "id": "362",
        "name": "PURCH GADGET LIMITED",
        "address": " 4, MEDICAL ROAD, COMPUTER VILLAGE, IKEJA, LAGOS",
        "lat": "6.60717",
        "lng": "3.349932",
        "phone": "",
        "category": "Dealer KRO",
        "date": "00/00/00",
        "city": "Lagos"
    },
    {
        "id": "363",
        "name": "OKAY FONES LTD",
        "address": "19A, AWOLOWO WAY, IKEJA",
        "lat": "6.597098",
        "lng": "3.340447",
        "phone": "",
        "category": "Dealer KRO",
        "date": "00/00/00",
        "city": "Lagos"
    },
    {
        "id": "364",
        "name": "DIVINE ANCHOR",
        "address": "2 AND 3 ULTIMATE PLAZA ISHERI - IGANDO",
        "lat": "6.576393",
        "lng": "3.280412",
        "phone": "",
        "category": "Dealer KRO",
        "date": "00/00/00",
        "city": "Lagos"
    },
    {
        "id": "365",
        "nameO": "SUREFONT MOBILE ",
        "address": "OBA PALACE, MARYLAND",
        "lat": "6.574635",
        "lng": "3.36592",
        "phone": "",
        "category": "Dealer KRO",
        "date": "00/00/00",
        "city": "Lagos"
    },
    {
        "id": "366",
        "name": "VICTORY BA SYNDICATE",
        "address": "1 COAST STREET, EBUTE METTA, LAGOS ",
        "lat": "6.485377",
        "lng": "3.379957",
        "phone": "",
        "category": "Dealer KRO",
        "date": "00/00/00",
        "city": "Lagos"
    },
    {
        "id": "367",
        "name": "DELOADMAN NIGERIA LIMITED",
        "address": "18 OTIGBA STREET IKEJA",
        "lat": "6.595468",
        "lng": "3.340285",
        "phone": "",
        "category": "Dealer KRO",
        "date": "00/00/00",
        "city": "Lagos"
    },
    {
        "id": "368",
        "name": "ICELL MOBILE PHONES LIMITED",
        "address": "1, IRE_AKARI STREET, ISOLO LAGOS",
        "lat": "6.521625",
        "lng": "3.322094",
        "phone": "",
        "category": "Dealer KRO",
        "date": "00/00/00",
        "city": "Lagos"
    },
    {
        "id": "369",
        "name": "KUKUJAY IT WORLD",
        "address": "1, OBA AKRAN AVENUE, IKEJA",
        "lat": "6.601328",
        "lng": "3.338695",
        "phone": "",
        "category": "Dealer KRO",
        "date": "00/00/00",
        "city": "Lagos"
    },
    {
        "id": "370",
        "name": "BRUZIK COMMUNICATION SERVICES LIMITED",
        "address": "162, IPAJA ROAD, BARUWA JUNCTION, LAGOS",
        "lat": "6.603981",
        "lng": "3.271932",
        "phone": "",
        "category": "Dealer KRO",
        "date": "00/00/00",
        "city": "Lagos"
    },
    {
        "id": "371",
        "name": "DREAMS & ACTUAL LIMITED",
        "address": "7A, ASSOCIATION AVENUE GOVERNOR'S ROAD, IKOTUN",
        "lat": "6.567836",
        "lng": "3.259302",
        "phone": "",
        "category": "Dealer KRO",
        "date": "00/00/00",
        "city": "Lagos"
    },
    {
        "id": "372",
        "name": "DRAYLINK ENTERPRISES",
        "address": "25, ANUOLUWAPO STREET, JANKARA, IJAIYE OJOKORO",
        "lat": "6.673959",
        "lng": "3.289654",
        "phone": "",
        "category": "Dealer KRO",
        "date": "00/00/00",
        "city": "Lagos"
    },
    {
        "id": "373",
        "name": "KOLISRADE LIMITED",
        "address": "KM5, IDIROKO EXPRESSWAY OTA, (JOMESS FILLING STATION)",
        "lat": "6.682941",
        "lng": "3.173322",
        "phone": "",
        "category": "Dealer KRO",
        "date": "00/00/00",
        "city": "Lagos"
    },
    {
        "id": "374",
        "name": "MUGOZ SYSTEMS",
        "address": "13/15 GODWIN OMONUA STREET, IRE AKARI ESTATE",
        "lat": "6.520438",
        "lng": "3.330586",
        "phone": "",
        "category": "Dealer KRO",
        "date": "00/00/00",
        "city": "Lagos"
    },
    {
        "id": "375",
        "name": "HATLON SYSTEMS",
        "address": "20 IRE AKARI ESTATE , ISOLA",
        "lat": "6.521918",
        "lng": "3.322083",
        "phone": "",
        "category": "Dealer KRO",
        "date": "00/00/00",
        "city": "Lagos"
    },
    {
        "id": "376",
        "name": "NCA COMMUNICATION",
        "address": " 168, AGEGE MOTOR ROAD, MUSHIN LAGOS",
        "lat": "6.527521",
        "lng": "3.354488",
        "phone": "",
        "category": "Dealer KRO",
        "date": "00/00/00",
        "city": "Lagos"
    },
    {
        "id": "377",
        "name": "DEMASWORLD RESOURCES LTD",
        "address": "7, OTIGBA STREET, IKEJI",
        "lat": "6.59557",
        "lng": "3.340263",
        "phone": "",
        "category": "Dealer KRO",
        "date": "00/00/00",
        "city": "Lagos"
    },
    {
        "id": "378",
        "name": "EMERALD SYNERGY TECHNOLOGICAL  NETWORK LIMITED ",
        "address": "40, AKERELE STREET, ONIGBONGBO MARYLAND/66/68 IKORODU ROAD, FADEYI-ONIPANU",
        "lat": "6.525022",
        "lng": "3.367663",
        "phone": "",
        "category": "Dealer KRO",
        "date": "00/00/00",
        "city": "Lagos"
    },
    {
        "id": "379",
        "name": "MARCVILLE NIG. LTD",
        "address": "48, OSOLO WAY, AJAO ESTATE. OPP MOPSON PHARM",
        "lat": "6.550636",
        "lng": "3.331691",
        "phone": "",
        "category": "Dealer KRO",
        "date": "00/00/00",
        "city": "Lagos"
    },
    {
        "id": "380",
        "name": "SMART PHONE",
        "address": "24. AWOLOWO WAY IKEJA",
        "lat": "6.617245",
        "lng": "3.361979",
        "phone": "",
        "category": "Dealer KRO",
        "date": "00/00/00",
        "city": "Lagos"
    },
    {
        "id": "381",
        "name": "DACHY SOLUTION LTD",
        "address": "4, OGUNYINKA STREET, OSHODI",
        "lat": "6.552295",
        "lng": "3.331376",
        "phone": "",
        "category": "Dealer KRO",
        "date": "00/00/00",
        "city": "Lagos"
    },
    {
        "id": "382",
        "name": "JUCON TECHNOLOGIES LTD",
        "address": "NO. 21 SIMBIAT ABIOLA WAY IKEJA",
        "lat": "6.594828",
        "lng": "3.338538",
        "phone": "",
        "category": "Dealer KRO",
        "date": "00/00/00",
        "city": "Lagos"
    },
    {
        "id": "383",
        "name": "GIANT TREND GADGETS LTD",
        "address": "23, AWOLOWO ROAD IKEJA",
        "lat": "6.596587",
        "lng": "3.339603",
        "phone": "",
        "category": "Dealer KRO",
        "date": "00/00/00",
        "city": "Lagos"
    },
    {
        "id": "384",
        "name": "ELI ADEWOLE GENERAL SERVICES LIMITED",
        "address": "7, SOMOYE OSUNDAIRO STREET, COMPUTER VILLAGE IKEJA",
        "lat": "6.594375",
        "lng": "3.339328",
        "phone": "",
        "category": "Dealer KRO",
        "date": "00/00/00",
        "city": "Lagos"
    },
    {
        "id": "385",
        "name": "OTOMAB",
        "address": "157 IDIMU ROAD PIPELINE EGBEDA",
        "lat": "6.581308",
        "lng": "3.283849",
        "phone": "",
        "category": "Dealer KRO",
        "date": "00/00/00",
        "city": "Lagos"
    },
    {
        "id": "386",
        "name": "ONE STEP INTEGRATED SERVICE LIMITED",
        "address": "88, MUSHIN ROAD, BY IRE AKARI BUS STOP",
        "lat": "6.556896",
        "lng": "3.328868",
        "phone": "",
        "category": "Dealer KRO",
        "date": "00/00/00",
        "city": "Lagos"
    },
    {
        "id": "387",
        "name": "SPECTRUM",
        "address": "18, OTIGBA STREET, IKEJA, LAGOS",
        "lat": 6.594875,
        "lng": 3.3405,
        "phone": "",
        "category": "Dealer KRO",
        "date": "00/00/00",
        "city": "Lagos"
    },
    {
        "id": "388",
        "name": "MESH",
        "address": "OKE ARO MATOGUN",
        "lat": "6.695121",
        "lng": "3.318413",
        "phone": "",
        "category": "Dealer KRO",
        "date": "00/00/00",
        "city": "Lagos"
    },
    {
        "id": "389",
        "name": "EMY JEEN COMMUNICATION",
        "address": "CENTURY BUS STOP OKOTA",
        "lat": "6.507369",
        "lng": "3.310281",
        "phone": "",
        "category": "Dealer KRO",
        "date": "00/00/00",
        "city": "Lagos"
    },
    {
        "id": "390",
        "name": "FAYEM GOLD",
        "address": "165 IKOTUN ISOLO ROAD CELE EGBE",
        "lat": "6.539604",
        "lng": "3.284376",
        "phone": "",
        "category": "Dealer KRO",
        "date": "00/00/00",
        "city": "Lagos"
    },
    {
        "id": "391",
        "name": "HEBRON BISON LIMITED",
        "address": "38, OLAJU STREET, IKOTUN",
        "lat": "6.695121",
        "lng": "3.318413",
        "phone": "",
        "category": "Dealer KRO",
        "date": "00/00/00",
        "city": "Lagos"
    },
    {
        "id": "392",
        "name": "PRE-EMINENT BUSINESS VENTURES",
        "address": "2 AGO PALACE WAY OKOTA",
        "lat": "6.507106",
        "lng": "3.310307",
        "phone": "",
        "category": "Dealer KRO",
        "date": "00/00/00",
        "city": "Lagos"
    },
    {
        "id": "393",
        "name": "SAMPAS VENTURES",
        "address": "73, OKOTA ROAD, ISOLO ",
        "lat": "6.517319",
        "lng": "3.318954",
        "phone": "",
        "category": "Dealer KRO",
        "date": "00/00/00",
        "city": "Lagos"
    },
    {
        "id": "394",
        "name": "CELIM ENGINEERING LTD",
        "address": "18 KALEJAIYE STREET BEESAM, IKEJA",
        "lat": "6.569763",
        "lng": "3.331773",
        "phone": "",
        "category": "Dealer KRO",
        "date": "00/00/00",
        "city": "Lagos"
    },
    {
        "id": "395",
        "name": "J MOBILE PHONE & ACESSORIES",
        "address": "13 LATEEF SALAMI AJAO ESTATE",
        "lat": "6.551816",
        "lng": "3.328749",
        "phone": "",
        "category": "Dealer KRO",
        "date": "00/00/00",
        "city": "Lagos"
    },
    {
        "id": "396",
        "name": "AEROTECH",
        "address": "53 LABINJO KALEJAIYE STR, MAFOLUKU, OSHODI",
        "lat": "6.564423",
        "lng": "3.332201",
        "phone": "",
        "category": "Dealer KRO",
        "date": "00/00/00",
        "city": "Lagos"
    },
    {
        "id": "397",
        "name": "CHUCHIFE NIGERIA LIMITED ",
        "address": "64, 0S0L0 WAY ISOLO",
        "lat": "6.54558",
        "lng": "3.3212",
        "phone": "",
        "category": "Dealer KRO",
        "date": "00/00/00",
        "city": "Lagos"
    },
    {
        "id": "398",
        "name": "GOODMAN COMMUNICATION",
        "address": "62, IBIOSI STREET, AJAO ISOLO",
        "lat": "6.54558",
        "lng": "3.3212",
        "phone": "",
        "category": "Dealer KRO",
        "date": "00/00/00",
        "city": "Lagos"
    },
    {
        "id": "399",
        "name": "MIRAFRAN LIMITED",
        "address": "13, OSOLO WAY, 7 & 8 JUCTION  OPPOSITE UBA BANK ISOLO",
        "lat": "6.549558",
        "lng": "3.331942",
        "phone": "",
        "category": "Dealer KRO",
        "date": "00/00/00",
        "city": "Lagos"
    },
    {
        "id": "400",
        "name": "BLACKHUB TECHNOLOGIES",
        "address": "2, SIMBIAT ABIOLA WAY IKEJA",
        "lat": "6.594906",
        "lng": "3.3384",
        "phone": "",
        "category": "Dealer KRO",
        "date": "00/00/00",
        "city": "Lagos"
    },
    {
        "id": "401",
        "name": "D-AUCTION POINT LIMITED",
        "address": "41, SEHINDE CALISTO STREET OSHODI, LAGOS",
        "latitude": 6.554156,
        "longitude": 3.342961,
        "cpe": "ADEDOYIN AKINBOLA",
        "tsm": "DAVID UJA"
    },
    {
        "id": "402",
        "name": "COPIA CARE LIMITED",
        "address": "3, IDOWU LANE IKEJA",
        "lat": "6.596246",
        "lng": "3.341056",
        "phone": "",
        "category": "Dealer KRO",
        "date": "00/00/00",
        "city": "Lagos"
    },
    {
        "id": "403",
        "name": "BEST SERVICE RAYA DISTRIBUTION NIGERIA LIMITED",
        "address": "22B AKINOLA COLDE CRESCENT, ADENIYI JONES IKEJA",
        "lat": "6.613191",
        "lng": "3.343914",
        "phone": "",
        "category": "Dealer KRO",
        "date": "00/00/00",
        "city": "Lagos"
    },
    {
        "id": "404",
        "nameOfTheChannelkro": "BEST SERVICE RAYA DISTRIBUTION NIGERIA LIMITED",
        "address": "22B AKINOLA COLDE CRESCENT, ADENIYI JONES IKEJA",
        "lat": "6.613191",
        "lng": "3.343914",
        "phone": "",
        "category": "Dealer KRO",
        "date": "00/00/00",
        "city": "Lagos"
    },
    {
        "id": "405",
        "nameOfTheChannelkro": "FAIRBOON NIGERIA LIMITED",
        "address": "SHOP 5 IGBAJA MARKET STREET",
        "lat": "6.533483",
        "lng": "3.377708",
        "phone": "",
        "category": "Dealer KRO",
        "date": "00/00/00",
        "city": "Lagos"
    },
    {
        "id": "406",
        "name": "PECKHAM INVESTMENT LIMITED",
        "address": "23/29, ABIBU_OKI STREET OFF BROAD STREET LAGOS",
        "lat": "6.452514",
        "lng": "3.390239",
        "phone": "",
        "category": "Dealer KRO",
        "date": "00/00/00",
        "city": "Lagos"
    },
    {
        "id": "407",
        "name": "PARK & SHOP SPAR ILUPEJU",
        "address": "ILUPEJU",
        "lat": "6.553372",
        "lng": "3.35473",
        "phone": "",
        "category": "Dealer KRO",
        "date": "00/00/00",
        "city": "Lagos"
    },
    {
        "id": "408",
        "nameOfTheChannelkro": "THE KINGDOM COMMUNICATION AND PROMOTION NETWORK LIMITED",
        "address": " 27, OSOLO WAY, AJAO ESTATE",
        "lat": "6.550913",
        "lng": "3.331723",
        "phone": "",
        "category": "Dealer KRO",
        "date": "00/00/00",
        "city": "Lagos"
    },
    {
        "id": "409",
        "name": "DIHE COMMUNICATIONS LTD",
        "address": "41 AYODELE STREET, MAFOLUKU, OSHODI, LAGOS.",
        "lat": "6.560561",
        "lng": "3.329029",
        "phone": "",
        "category": "Dealer KRO",
        "date": "00/00/00",
        "city": "Lagos"
    },
    {
        "id": "410",
        "name": "ADEMOLA VENTURES",
        "address": "9 KUDAKI ROAD, AGODO, EGBE, IKOTUN, LAGOS.",
        "lat": "6.532393",
        "lng": "3.280867",
        "phone": "",
        "category": "Dealer KRO",
        "date": "00/00/00",
        "city": "Lagos"
    },
    {
        "id": "411",
        "name": "DAMGOKE SEN PRINT COMPANY",
        "address": "33 OLUYOLE STREET MAFOLUKU",
        "lat": "6.556689",
        "lng": "3.337913",
        "phone": "",
        "category": "Dealer KRO",
        "date": "00/00/00",
        "city": "Lagos"
    },
    {
        "id": "412",
        "name": "M. C. SYSTECH VENTURES",
        "address": " 5, OTIGBA STREET IKEJA",
        "lat": "6.594925",
        "lng": "3.338922",
        "phone": "",
        "category": "Dealer KRO",
        "date": "00/00/00",
        "city": "Lagos"
    },
    {
        "id": "413",
        "name": "DABMOL NIGERIA LIMITED",
        "address": "15 OREMEJI STREET IKEJA",
        "lat": "6.595162",
        "lng": "3.339075",
        "phone": "",
        "category": "Dealer KRO",
        "date": "00/00/00",
        "city": "Lagos"
    },
    {
        "id": "414",
        "name": "HIMBELL COMPANY",
        "address": "17, OFADA ROAD, OLOKODANA COMPOUND MOWE, OGUN STATE",
        "lat": "6.807298",
        "lng": "3.436747",
        "phone": "",
        "category": "Dealer KRO",
        "date": "00/00/00",
        "city": "Ogun"
    },
    {
        "id": "415",
        "name": "MCFELIX INTERNATIONAL LIMITED",
        "address": "SUNBOSS PLAZA, IBAFO",
        "lat": "6.741535",
        "lng": "3.421619",
        "phone": "",
        "category": "Dealer KRO",
        "date": "00/00/00",
        "city": "Ogun"
    },
    {
        "id": "416",
        "name": "ELLAWORLD COMMUNICATION LIMITED",
        "address": "PAKURU JUNCTION BY TIPPER GARAGE",
        "lat": "6.589588",
        "lng": "3.377431",
        "phone": "",
        "category": "Dealer KRO",
        "date": "00/00/00",
        "city": "Lagos"
    },
    {
        "id": "417",
        "name": "OLUMAJEK IT CONTINENTAL",
        "address": "09 OFADA ROAD MOWE, OGUN STATE",
        "lat": "6.81997",
        "lng": "3.455993",
        "phone": "",
        "category": "Dealer KRO",
        "date": "00/00/00",
        "city": "Ogun"
    },
    {
        "id": "418",
        "name": "SIGNAL QUALITY",
        "address": " 3, IMEDU-NLA ROAD, MOWE",
        "lat": "6.818803",
        "lng": "3.438724",
        "phone": "",
        "category": "Dealer KRO",
        "date": "00/00/00",
        "city": "Ogun"
    },
    {
        "id": "419",
        "name": "HOMODY COMMUNICATION",
        "address": "66, OFADA ROAD, OPP 7TH WORLD BIBLE CHURCH MOWE",
        "lat": "6.813463",
        "lng": "3.445176",
        "phone": "",
        "category": "Dealer KRO",
        "date": "00/00/00",
        "city": "Lagos"
    },
    {
        "id": "420",
        "name": "SOCHIKANMA GLOBAL RESOURCES LIMITED",
        "address": "MOWE",
        "lat": "6.818946",
        "lng": "3.436787",
        "phone": "",
        "category": "Dealer KRO",
        "date": "00/00/00",
        "city": "ogun"
    },
    {
        "id": "421",
        "name": "GOD'S GLORY STANDARD VISION & CO NIG LTD",
        "address": "1, OSHOLEWA STREET MOWOE",
        "lat": "6.821147",
        "lng": "3.432726",
        "phone": "",
        "category": "Dealer KRO",
        "date": "00/00/00",
        "city": "Lagos"
    },
    {
        "id": "422",
        "name": "MICBEL VENTURES LTD",
        "address": "NO 2, OKE STREET OPPOSITE FORTE OIL, ATEWOLARA MUSHIN",
        "lat": "6.532394",
        "lng": "3.353564",
        "phone": "",
        "category": "Dealer KRO",
        "date": "00/00/00",
        "city": "Lagos"
    },
    {
        "id": "423",
        "name": "LATEETOY NIGERIA LTD",
        "address": " SUIT 26, ROSEVIEW PLAZA BEACHLAND ROAD AREPO, OGUN STATE",
        "lat": "6.69739",
        "lng": "3.419109",
        "phone": "",
        "category": "Dealer KRO",
        "date": "00/00/00",
        "city": "Lagos"
    },
    {
        "id": "424",
        "name": "DE-EIRAS COMMUNICATION NETWORK LTD",
        "address": " 11, CONGRESS ROAD IMEDU NLA MOWOE",
        "lat": "6.824391",
        "lng": "3.430585",
        "phone": "",
        "category": "Dealer KRO",
        "date": "00/00/00",
        "city": "Lagos"
    },
    {
        "id": "425",
        "name": "ALLLINK COMMUNICATIONS SERVICES",
        "address": "2A, AYODELE FANORKI AVENUE, ISHERI MAGODO",
        "lat": "6.640253",
        "lng": "3.375049",
        "phone": "",
        "category": "Dealer KRO",
        "date": "00/00/00",
        "city": "Lagos"
    },
    {
        "id": "426",
        "name": "SKAO COMMUNICATIONS",
        "address": "SUIT 27, SMECCA SHOPPING COMPLEC IBAFO",
        "lat": "6.742931",
        "lng": "3.423872",
        "phone": "",
        "category": "Dealer KRO",
        "date": "00/00/00",
        "city": "Ogun"
    },
    {
        "id": "427",
        "name": "HESED IT SOLUTION",
        "address": "20, AFOLABI AINA STREET, ALLEN, BEHIND ALADE MARKET, IKEJA",
        "lat": "6.606867",
        "lng": "3.350295",
        "phone": "",
        "category": "Dealer KRO",
        "date": "00/00/00",
        "city": "Lagos"
    },
    {
        "id": "428",
        "name": "DAAD GLORY ENTERPRISES",
        "address": "30, OYATOGUN STREET, OKE-IRA, OGBA",
        "lat": "6.643474",
        "lng": "3.348438",
        "phone": "",
        "category": "Dealer KRO",
        "date": "00/00/00",
        "city": "Lagos"
    },
    {
        "id": "429",
        "name": "O DELSON COMMUNICATION & NETWORK MARKETING COMPANY LIMITED",
        "address": "12, MUKUOLU PLAZA ROAD, OGBA",
        "lat": "6.632288",
        "lng": "3.341153",
        "phone": "",
        "category": "Dealer KRO",
        "date": "00/00/00",
        "city": "Lagos"
    },
    {
        "id": "430",
        "name": "OMOTUYOLES VENTURES",
        "address": "2C, MAYIA STREET, IBAFO",
        "lat": "6.743442",
        "lng": "3.425288",
        "phone": "",
        "category": "Dealer KRO",
        "date": "00/00/00",
        "city": "Ogun"
    },
    {
        "id": "431",
        "name": "SEAKROL COMPUTER ENTERRISES",
        "address": "SUITE 4, SCIENCE STREET, UNILAG ESTATE, ISHERI",
        "lat": "6.631681",
        "lng": "3.391156",
        "phone": "",
        "category": "Dealer KRO",
        "date": "00/00/00",
        "city": "Lagos"
    },
    {
        "id": "432",
        "name": "MIS SOLUTION",
        "address": "1, GBOYEGA KILO STREET, IBAFO",
        "lat": "6.734833",
        "lng": "3.42134",
        "phone": "",
        "category": "Dealer KRO",
        "date": "00/00/00",
        "city": "Ogun"
    },
    {
        "id": "433",
        "name": "DANDOLAS NIGERIA LIMITED",
        "address": "7, OLUWAKEMI STREET, ALAPERE BUS STOP, ALAPERE",
        "lat": "6.587545",
        "lng": "3.398276",
        "phone": "",
        "category": "Dealer KRO",
        "date": "00/00/00",
        "city": "Lagos"
    },
    {
        "id": "434",
        "name": "DEJMA VENTURES",
        "address": "17, JAGUNMOLU STREET, BARIGA, LAGOS",
        "lat": "6.541068",
        "lng": "3.392872",
        "phone": "",
        "category": "Dealer KRO",
        "date": "00/00/00",
        "city": "Lagos"
    },
    {
        "id": "435",
        "name": "ADVANCE WORLD TELECOMS",
        "address": "6 MARKET ROAD, IBAFO",
        "lat": "6.741269",
        "lng": "3.423014",
        "phone": "",
        "category": "Dealer KRO",
        "date": "00/00/00",
        "city": "Ogun"
    },
    {
        "id": "436",
        "name": "OKPARA MEKINO NIGERIA ENTERPRISES",
        "address": "SHOP EG16, 12 ARENA MARKET",
        "lat": "6.562845",
        "lng": "3.350569",
        "phone": "",
        "category": "Dealer KRO",
        "date": "00/00/00",
        "city": "Lagos"
    },
    {
        "id": "437",
        "name": "MASAJ LIMITED",
        "address": "6, SHERRIFU LANE, IBAFO",
        "lat": "6.742078",
        "lng": "3.42473",
        "phone": "",
        "category": "Dealer KRO",
        "date": "00/00/00",
        "city": "Ogun"
    },
    {
        "id": "438",
        "name": "T-SAT COMMUNICATIONS",
        "address": "250 IKORODU ROAD, OBANIKORO,",
        "lat": "6.548528",
        "lng": "3.367432",
        "phone": "",
        "category": "Dealer KRO",
        "date": "00/00/00",
        "city": "Lagos"
    },
    {
        "id": "439",
        "name": "GABNET TECHNOLOGY",
        "address": "SUIT 16, YAH WAHAB SHOPPING COMPLEX, AREPO",
        "lat": "6.656906",
        "lng": "3.382509",
        "phone": "",
        "category": "Dealer KRO",
        "date": "00/00/00",
        "city": "Lagos"
    },
    {
        "id": "440",
        "name": "GRACEE INDUSTRIES NIGERIA LIMITED",
        "address": " 98, MUSHIN ROAD, ISOLO",
        "lat": "6.530521",
        "lng": "3.343904",
        "phone": "",
        "category": "Dealer KRO",
        "date": "00/00/00",
        "city": "Lagos"
    },
    {
        "id": "441",
        "name": "HAPPYMOOD ENTERPRISES",
        "address": " 73, LAWANSON ROAD BY WURAOLA B/S LAWANSON",
        "lat": "6.513501",
        "lng": "3.346591",
        "phone": "",
        "category": "Dealer KRO",
        "date": "00/00/00",
        "city": "Lagos"
    },
    {
        "id": "442",
        "name": "ABELAJ VENTURES",
        "address": " 28, CHURCH STREET, OSHODI",
        "lat": "6.597448",
        "lng": "3.343927",
        "phone": "",
        "category": "Dealer KRO",
        "date": "00/00/00",
        "city": "Lagos"
    },
    {
        "id": "443",
        "name": "WIZY COMMUNICATIONS",
        "address": "216, AKINYELE BUS STOP, OPPOSITE FIRST ROYAL IPAJA AYOBO ROAD, IPAJA",
        "lat": "6.609263",
        "lng": "3.257521",
        "phone": "",
        "category": "Dealer KRO",
        "date": "00/00/00",
        "city": "Lagos"
    },
    {
        "id": "444",
        "name": "QWICK PIK STORES",
        "address": "1 KM1 MAGBORO ROAD, MAGBORO",
        "lat": "6.719761",
        "lng": "3.404346",
        "phone": "",
        "category": "Dealer KRO",
        "date": "00/00/00",
        "city": "Lagos"
    },
    {
        "id": "445",
        "name": "OLOWE VENTURES",
        "address": " 2, UNIQUE ESTATE, MAGBORO",
        "lat": "6.722532",
        "lng": "3.397908",
        "phone": "",
        "category": "Dealer KRO",
        "date": "00/00/00",
        "city": "Lagos"
    },
    {
        "id": "446",
        "name": "GOLDRUSH NIGERIA GLOBAL VENTURES",
        "address": "34/36, FiSH HOUSE, JIBOWU IKORODU ROAD",
        "lat": "6.522227",
        "lng": "3.367805",
        "phone": "",
        "category": "Dealer KRO",
        "date": "00/00/00",
        "city": "Lagos"
    },
    {
        "id": "447",
        "name": "A ONE VENTURES",
        "address": "2 OGUNFUNMI STREET OKERUBE",
        "lat": "6.543685",
        "lng": "3.262235",
        "phone": "",
        "category": "Dealer KRO",
        "date": "00/00/00",
        "city": "Lagos"
    },
    {
        "id": "448",
        "name": "EUGEDONS INTERNATIONAL LTD",
        "address": "NO. 1 ITAPEJU STREET, APAPA",
        "lat": "6.444032",
        "lng": "3.372623",
        "phone": "",
        "category": "Dealer KRO",
        "date": "00/00/00",
        "city": "Lagos"
    },
    {
        "id": "449",
        "name": "MISMAD SYSTEMS AND TECHNOLOGY",
        "address": "15, BABALOLA STREET, MAGODO",
        "lat": "6.591962",
        "lng": "3.299315",
        "phone": "",
        "category": "Dealer KRO",
        "date": "00/00/00",
        "city": "Lagos"
    },
    {
        "id": "450",
        "name": "BIDMOD INTERNATIONAL LIMITED",
        "address": "62, AROWODOBE STREET, ",
        "lat": "6.563808",
        "lng": "3.341985",
        "phone": "",
        "category": "Dealer KRO",
        "date": "00/00/00",
        "city": "Lagos"
    },
    {
        "id": "451",
        "name": "ALO SUPPORT SERVICE LTD",
        "address": "62, ALADELOLA STREET. OPP TELEVISION CONTINENTAL TVC IKOSI KETU",
        "lat": "6.604147",
        "lng": "3.378773",
        "phone": "",
        "category": "Dealer KRO",
        "date": "00/00/00",
        "city": "Lagos"
    },
    {
        "id": "452",
        "name": "TREBKANN NIGERIA LIMITED",
        "address": "UBA SUPERMARKET BUILDING, OPP GREENSPRINGS SCH.AWOYAYA, LAGOS",
        "lat": "6.462461",
        "lng": "3.692625",
        "phone": "",
        "category": "Dealer KRO",
        "date": "00/00/00",
        "city": "Lagos"
    },
    {
        "id": "453",
        "name": "DE HILLTON BUSINESS LINK",
        "address": "4B FESTIVAL SUILTS PLAZA, FESTAC TOWN",
        "lat": "6.466633",
        "lng": "3.284778",
        "phone": "",
        "category": "Dealer KRO",
        "date": "00/00/00",
        "city": "Lagos"
    },
    {
        "id": "454",
        "name": "O.C.A. GLOBALE LINK",
        "address": "38, OSHOLEWH STREET MOWE",
        "lat": "6.812452",
        "lng": "3.435445",
        "phone": "",
        "category": "Dealer KRO",
        "date": "00/00/00",
        "city": "Ogun"
    },
    {
        "id": "455",
        "name": "DA MORIS NIG ENTERPRISES",
        "address": "18, ASANI STREET, ILAJE BUSSTOP, AKOKA",
        "lat": "6.531862",
        "lng": "3.391006",
        "phone": "",
        "category": "Dealer KRO",
        "date": "00/00/00",
        "city": "Lagos"
    },
    {
        "id": "456",
        "name": "LATEETOY NIGERIA LTD",
        "address": "SUIT 26, ROSEVIEW PLAZA BEACHLAND ROAD AREPO, OGUN STATE",
        "lat": "6.698204",
        "lng": "3.429675",
        "phone": "",
        "category": "Dealer KRO",
        "date": "00/00/00",
        "city": "Lagos"
    },
    {
        "id": "457",
        "name": "OLAT ENTERPRISE LIMITED",
        "address": "3, DELE OKUWH STREET, IKOSI KETU",
        "lat": "6.601897",
        "lng": "3.381815",
        "phone": "",
        "category": "Dealer KRO",
        "date": "00/00/00",
        "city": "Lagos"
    },
    {
        "id": "458",
        "name": "THE KINGS GLOBAL LIMITED",
        "address": "15, ISEYIN STREET, ILUPEJU",
        "lat": "6.537039",
        "lng": "3.360857",
        "phone": "",
        "category": "Dealer KRO",
        "date": "00/00/00",
        "city": "Lagos"
    },
    {
        "id": "459",
        "name": "RCCG BETHEL PLACE",
        "address": "KM 46, LAGOS IBADAN EXPRESSWAY MOWE",
        "lat": "6.817863",
        "lng": "3.459875",
        "phone": "",
        "category": "Dealer KRO",
        "date": "00/00/00",
        "city": "Ogun"
    },
    {
        "id": "460",
        "name": "KAFI BAYO NIGERIA LTD",
        "address": "6, MUDASHINA STREET MOWE",
        "lat": "6.807843",
        "lng": "3.435717",
        "phone": "",
        "category": "Dealer KRO",
        "date": "00/00/00",
        "city": "Ogun"
    },
    {
        "id": "461",
        "name": "BOFEM TECHNICAL NIGERIA ENTERPRISES",
        "address": "398, IKORODU ROAD, OJOTA",
        "lat": "6.587141",
        "lng": "3.378503",
        "phone": "",
        "category": "Dealer KRO",
        "date": "00/00/00",
        "city": "Lagos"
    },
    {
        "id": "462",
        "name": "BUSINESS STANDARDS  ON-LINE MEDIA LTD",
        "address": "1, NWAFOR STREET, NDIKE OBAWOLE",
        "lat": "6.665677",
        "lng": "3.338887",
        "phone": "",
        "category": "Dealer KRO",
        "date": "00/00/00",
        "city": "Lagos"
    },
    {
        "id": "463",
        "name": "GERMANE VENTURES LIMITED",
        "address": "SHOP 82 BUSINESS PLAZA IJAIYE ",
        "lat": "6.6636",
        "lng": "3.28949",
        "phone": "",
        "category": "Dealer KRO",
        "date": "00/00/00",
        "city": "Lagos"
    },
    {
        "id": "464",
        "name": "CASFORDS NIG LTD",
        "address": "GF16, AXION PLAZA, OPP NITEL EXCHANGE AGEGE",
        "lat": "6.615356",
        "lng": "3.323782",
        "phone": "",
        "category": "Dealer KRO",
        "date": "00/00/00",
        "city": "Lagos"
    },
    {
        "id": "465",
        "name": "LUGAS CONCEPT ENTERPRISES",
        "code": "LGR1155",
        "address": "SUIT 19B, PRIMAL-PER PLAZA EGBEDA",
        "lat": "6.591574",
        "lng": "3.291062",
        "phone": "",
        "category": "Dealer KRO",
        "date": "00/00/00",
        "city": "Lagos"
    },
    {
        "id": "466",
        "name": "NIMBLE GLOBAL COMMUNICATION RESOURCES LIMITED",
        "address": "68/70, EGBE ROAD EGBE",
        "lat": "6.544594",
        "lng": "3.277469",
        "phone": "",
        "category": "Dealer KRO",
        "date": "00/00/00",
        "city": "Lagos"
    },
    {
        "id": "467",
        "name": "BLUE CRYSTAL DIAMOND VENTURES",
        "address": "PHASE 2 SUIT 4 LSDPC SHOPPING COMPLEX NDC PENCINIMA",
        "latitude": "6.557474",
        "lng": "3.365698",
        "phone": "",
        "category": "Dealer KRO",
        "date": "00/00/00",
        "city": "Lagos"
    },
    {
        "id": "468",
        "name": "ABTEL COMMUNICATION",
        "address": "13, ABARANJE ROAD, IKOTUN",
        "lat": "6.539814",
        "lng": "3.256521",
        "phone": "",
        "category": "Dealer KRO",
        "date": "00/00/00",
        "city": "Lagos"
    },
    {
        "id": "469",
        "name": "DECLAND INFOTECH LIMITED",
        "address": "59, OLADOJE B/STOP OKO OBA AGEGE",
        "lat": "6.642386",
        "lng": "3.314907",
        "phone": "",
        "category": "Dealer KRO",
        "date": "00/00/00",
        "city": "Lagos"
    },
    {
        "id": "470",
        "name": "LAXMI SYSTEMS TECHNOLOGY",
        "address": "BLOCK C8 SHOP 12, OLUGBEDE MARKET, EGBEDA",
        "lat": "6.587813",
        "lng": "3.290986",
        "phone": "",
        "category": "Dealer KRO",
        "date": "00/00/00",
        "city": "Lagos"
    },
    {
        "id": "471",
        "name": "JAMMABOL NIGERIA LIMITED",
        "address": "BLOCK D1 SUITE 52/53 OLUGBADE MARKET EGBEDA",
        "lat": "6.429199",
        "lng": "3.423213",
        "phone": "",
        "category": "Dealer KRO",
        "date": "00/00/00",
        "city": "Lagos"
    },
    {
        "id": "472",
        "name": "DAVCOM SERVICES VENTURE",
        "address": "4, ARAROMI STREET, IYANA IPAJA",
        "lat": "6.551856",
        "lng": "3.39684",
        "phone": "",
        "category": "Dealer KRO",
        "date": "00/00/00",
        "city": "Lagos"
    },
    {
        "id": "473",
        "name": "B HALLMARK GLOBAL  SERVICES LIMITED",
        "address": "43/44 OLUGBEDE COMPLEX EGBEDA",
        "lat": "6.586726",
        "lng": "3.290278",
        "phone": "",
        "category": "Dealer KRO",
        "date": "00/00/00",
        "city": "Lagos"
    },
    {
        "id": "474",
        "name": "PINACLE WIRELESS_IKOTUN",
        "address": "22, IDIMU ROAD BEHIND BRT BUS STOP IKOTUN",
        "lat": "6.562827",
        "lng": "3.274493",
        "phone": "",
        "category": "Dealer KRO",
        "date": "00/00/00",
        "city": "Lagos"
    },
    {
        "id": "475",
        "name": "PINACLE WIRELESS_IPAJA",
        "address": "41/43 NEW IPAJA ROAD IYANA IPAJA",
        "lat": "6.619837",
        "lng": "3.301572",
        "phone": "",
        "category": "Dealer KRO",
        "date": "00/00/00",
        "city": "Lagos"
    },
    {
        "id": "476",
        "name": "OFFICE EVERYTHING SHOPRITE IKEJA",
        "address": "IKEJA SHOPRITE",
        "lat": "6.612706",
        "lng": "3.354381",
        "phone": "",
        "category": "Dealer KRO",
        "date": "00/00/00",
        "city": "Lagos"
    },
    {
        "id": "477",
        "name": "OFFICE EVERYTHING LEISURE MALL SURULERE",
        "address": "SURULERE, ADENIRAN MALL",
        "lat": "6.489215",
        "lng": "3.355165",
        "phone": "",
        "category": "Dealer KRO",
        "date": "00/00/00",
        "city": "Lagos"
    },
    {
        "id": "478",
        "name": "GOLDEN ABBEY NIGERIA ENT",
        "address": "30, OLD OTA ROAD, ALAGBADO LAGOS",
        "lat": "6.655816",
        "lng": "3.27043",
        "phone": "",
        "category": "Dealer KRO",
        "date": "00/00/00",
        "city": "Lagos"
    },
    {
        "id": "479",
        "name": "PHIL SPARKLING SERVICE ENTERPRISES",
        "address": "748, ABEOKUTA EXPRESS WAY MOSHALASHI BUS STOP, ABULE EGBE",
        "lat": "6.660061",
        "lng": "3.292029",
        "phone": "",
        "category": "Dealer KRO",
        "date": "00/00/00",
        "city": "Lagos"
    },
    {
        "id": "480",
        "name": "NEYOLIN COMMUNICATION",
        "address": "36, BAALE ANIMASHAUN ROAD, ALAKUKO BUS STOP ABEOKUTA EXPRESS WAY",
        "lat": "6.681121",
        "lng": "3.264649",
        "phone": "",
        "category": "Dealer KRO",
        "date": "00/00/00",
        "city": "Lagos"
    },
    {
        "id": "481",
        "name": "LAWEMEKA LIMITED",
        "address": "SUITE 15, YBO PLAZA ALAKUKO",
        "lat": "6.681121",
        "lng": "3.264649",
        "phone": "",
        "category": "Dealer KRO",
        "date": "00/00/00",
        "city": "Lagos"
    },
    {
        "id": "482",
        "name": "TESTED OK ELECTRONICS VENTURES",
        "address": "23, AGBADO ROAD IJAIYE OJOKORO",
        "lat": "6.668039",
        "lng": "3.286649",
        "phone": "",
        "category": "Dealer KRO",
        "date": "00/00/00",
        "city": "Lagos"
    },
    {
        "id": "483",
        "name": "DE CABLE PLANET COMPANY",
        "address": "SUITE C 29, 80 PLAZA GLITTER  PLAZA, AJEGUNLE",
        "lat": "7.866667",
        "lng": "3.233333",
        "phone": "",
        "category": "Dealer KRO",
        "date": "00/00/00",
        "city": "Lagos"
    },
    {
        "id": "484",
        "name": "YOMES RESOURCES",
        "address": "23, IYANA IJEJA AJEWOLE, IJOKO",
        "lat": "6.700829",
        "lng": "3.306834",
        "phone": "",
        "category": "Dealer KRO",
        "date": "00/00/00",
        "city": "Ogun"
    },
    {
        "id": "485",
        "name": "YNET GLOBAL COMMUNICATION",
        "address": "144, OLUSEGUN OSHOBA ROAD, POWERLINE IJU ISHAGA LAGOS",
        "lat": "6.662283",
        "lng": "3.327835",
        "phone": "",
        "category": "Dealer KRO",
        "date": "00/00/00",
        "city": "Lagos"
    },
    {
        "id": "486",
        "name": "B RITE  SERVICES",
        "address": "72, CANDES ROAD, BAEUWA INSIDE IPAJA",
        "lat": "6.603721",
        "lng": "3.271796",
        "phone": "",
        "category": "Dealer KRO",
        "date": "00/00/00",
        "city": "Lagos"
    },
    {
        "id": "487",
        "name": "2ND IN COMMAND TELECOMMUNICATION VENTURES",
        "address": "21 EKORO ROAD, AGBELEKALE ABULE EGBA",
        "lat": "6.638419",
        "lng": "3.286067",
        "phone": "",
        "category": "Dealer KRO",
        "date": "00/00/00",
        "city": "Lagos"
    },
    {
        "id": "488",
        "name": "F.A. COMMUNICATION",
        "address": "1 OLADEHINDE STREET, OFF EKORO ROAD",
        "lat": "6.561563",
        "lng": "3.331769",
        "phone": "",
        "category": "Dealer KRO",
        "date": "00/00/00",
        "city": "Lagos"
    },
    {
        "id": "489",
        "name": "SWIFT CONCEPT",
        "address": "270, IKORODU ROAD, LAMLAT HOUSE, BY FIOSON SAVOIL BUSTOP, OBANIKORO, LAGOS.",
        "lat": "6.548401",
        "lng": "3.371644",
        "phone": "",
        "category": "Dealer KRO",
        "date": "00/00/00",
        "city": "Lagos"
    },
    {
        "id": "490",
        "name": "SWIFT CONCEPT",
        "address": "WURAOLA HOUSE, 82 ALLEN BESIDE GTBANK, ALLEN IKEJA, LAGOS.",
        "lat": "6.596274",
        "lng": "3.354596",
        "phone": "",
        "category": "Dealer KRO",
        "date": "00/00/00",
        "city": "Lagos"
    },
    {
        "id": "491",
        "name": "LUNAR COMMUNICATIONS",
        "address": "LAGOS ISLAND, MARINA, LAGOS.",
        "lat": "6.600976",
        "lng": "3.291156",
        "phone": "",
        "category": "Dealer KRO",
        "date": "00/00/00",
        "city": "Lagos"
    },
    {
        "id": "492",
        "name": "WALLGATE VENTURES LTD",
        "address": "17/19 ALLEN AVENUE, OSHOPY PLAZA, IKEJA, LAGOS.",
        "lat": "6.597736",
        "lng": "3.35373",
        "phone": "",
        "category": "Dealer KRO",
        "date": "00/00/00",
        "city": "Lagos"
    },
    {
        "id": "493",
        "name": "BITOL DATA COMMS VENTURES",
        "address": "BLOCK 32 MILLENIUM ESTATE",
        "lat": "6.662908",
        "lng": "3.298611",
        "phone": "",
        "category": "Dealer KRO",
        "date": "00/00/00",
        "city": "Lagos"
    },
    {
        "id": "494",
        "name": "PLANET COMPUTER SYSTEMS",
        "address": "SUITE 31 BANK ANTHONY WAY",
        "lat": "6.592153",
        "lng": "3.342647",
        "phone": "",
        "category": "Dealer KRO",
        "date": "00/00/00",
        "city": "Lagos"
    },
    {
        "id": "495",
        "name": "ACTUALPOINT SERVICES",
        "address": " OANDO FILLING STATION, SHASHA",
        "lat": "6.587501",
        "lng": "3.302386",
        "phone": "",
        "category": "Dealer KRO",
        "date": "00/00/00",
        "city": "Lagos"
    },
    {
        "id": "496",
        "nameO": "TOSETOBS INTEGRATED SERVICES LIMITED",
        "address": "KM 36, LAGOS IBADAN EXPRESSWAY, IBAFO",
        "lat": "6.617283",
        "lng": "3.365568",
        "phone": "",
        "category": "Dealer KRO",
        "date": "00/00/00",
        "city": "Ogun"
    },
    {
        "id": "497",
        "name": "GISTMATE COMMUNICATIONS LIMITED",
        "address": "9, SEIDU AJIBOWU STREET, OFF TOYIN STREET, IKEJA",
        "lat": "6.60066",
        "lng": "3.352249",
        "phone": "",
        "category": "Dealer KRO",
        "date": "00/00/00",
        "city": "Lagos"
    },
    {
        "id": "498",
        "name": "UGOAMEZ GLOBAL LTD",
        "address": "1/3 ALI STREET TINUBU SQ LAGOS ISLAND",
        "lat": "6.453665",
        "lng": "3.389963",
        "phone": "",
        "category": "Dealer KRO",
        "date": "00/00/00",
        "city": "Lagos"
    },
    {
        "id": "499",
        "name": "FINDERS NET INVESTMENT",
        "address": "SUITE 59 TBS SHOPPING COMPLEX RACE COURSE IKOYI LAGOS",
        "lat": "6.446132",
        "lng": "3.400794",
        "phone": "",
        "category": "Dealer KRO",
        "date": "00/00/00",
        "city": "Lagos"
    },
    {
        "id": "500",
        "name": "NETMAX",
        "address": "6 Raxton Rd Ikoyi Glover Rd, Ikoyi, Lagos.",
        "lat": "6.453509",
        "lng": "3.434209",
        "phone": "",
        "category": "Dealer KRO",
        "date": "00/00/00",
        "city": "Lagos"
    },
    {
        "id": "501",
        "name": "D. TEX INTERNATIONAL LTD",
        "address": "12 SAKA TINUBU STREET, VICTORIA ISLAND, LAGOS.",
        "lat": "6.426997",
        "lng": "3.421212",
        "phone": "",
        "category": "Dealer KRO",
        "date": "00/00/00",
        "city": "Lagos"
    },
    {
        "id": "502",
        "name": "STRONG ARM TECHNOLOGIES AND SERVICES",
        "address": "116A, ADETOLA STREET AGUDA SURULERE",
        "lat": "6.49427",
        "lng": "3.338834",
        "phone": "",
        "category": "Dealer KRO",
        "date": "00/00/00",
        "city": "Lagos"
    },
    {
        "id": "503",
        "name": "GEMSTONE GLOBAL RESOURCES LTD",
        "address": "99 ADESHINA STREET, IJESHA, AIRWAYS SURULERE",
        "lat": "6.492793",
        "lng": "3.32322",
        "phone": "",
        "category": "Dealer KRO",
        "date": "00/00/00",
        "city": "Lagos"
    },
    {
        "id": "504",
        "name": "FRIC AND FONDI TELECOMS LIMITED",
        "address": "209, IJESHA ROAD, IJESHATEDO",
        "lat": "6.495225",
        "lng": "3.325486",
        "phone": "",
        "category": "Dealer KRO",
        "date": "00/00/00",
        "city": "Lagos"
    },
    {
        "id": "505",
        "name": "DOSKAY NIG LTD",
        "address": "194 AWOLOWO ROAD IKOYI",
        "lat": "6.44289",
        "lng": "3.412704",
        "phone": "",
        "category": "Dealer KRO",
        "date": "00/00/00",
        "city": "Lagos"
    },
    {
        "id": "506",
        "name": "PAIX INTEGRATED SERVICE LTD",
        "address": " SHOP 3 LEKKI EPE EXPRESS WAY, OPPOSITE SAPHARA GARDEN, LEKKI",
        "lat": "6.434242",
        "lng": "3.504207",
        "phone": "",
        "category": "Dealer KRO",
        "date": "00/00/00",
        "city": "Lagos"
    },
    {
        "id": "507",
        "name": "SIMOS INTEGRATED VENTURE",
        "address": " BLOCK A AJAH ULTRA MODLE MARKET",
        "lat": "6.468437",
        "lng": "3.564811",
        "phone": "",
        "category": "Dealer KRO",
        "date": "00/00/00",
        "city": "Lagos"
    },
    {
        "id": "508",
        "name": "TRINITY TREASURES LTD",
        "address": "PLOT 1, SOLA MIKE AGBOOLA CLOSE, SIMAWA, OGUN STATE",
        "lat": "6.788286",
        "lng": "3.532078",
        "phone": "",
        "category": "Dealer KRO",
        "date": "00/00/00",
        "city": "Lagos"
    },
    {
        "ct": "509",
        "name": "SDMA NETWORKS LTD",
        "address": "BLOCK A2, SUITE 130, SURA OFFICE COMPLEX, LAGOS ISLAND",
        "lat": "6.454924",
        "lng": "3.40354",
        "phone": "",
        "category": "Dealer KRO",
        "date": "00/00/00",
        "city": "Lagos"
    },
    {
        "id": "510",
        "name": "PROFOUND HOUSE OF DESIGNS",
        "address": "28 SHIPEOLU STREET,BY FCMB ELEDIYE BUS STOP, SHOMOLU",
        "lat": "6.541167",
        "lng": "3.368304",
        "phone": "",
        "category": "Dealer KRO",
        "date": "00/00/00",
        "city": "Lagos"
    },
    {
        "id": "511",
        "name": "ISLAND COMPUTER COLLEGE",
        "address": "7, ADDO ROAD,  BADORE, AJAH",
        "lat": "6.467018",
        "lng": "3.566613",
        "phone": "",
        "category": "Dealer KRO",
        "date": "00/00/00",
        "city": "Lagos"
    },
    {
        "id": "512",
        "name": "LARDEL GOLD GLOBAL CONCEPTS",
        "address": "BLOCK B SUITE 07, SURA SHOPPING COMPLEX,",
        "lat": "6.454615",
        "lng": "3.403602",
        "phone": "",
        "category": "Dealer KRO",
        "date": "00/00/00",
        "city": "Lagos"
    },
    {
        "id": "513",
        "name": "UNIQUE  ZION DIVE",
        "address": "SONY PLAZA OANDO MARINA, LAGOS",
        "lat": "6.447179",
        "lng": "3.352019",
        "phone": "",
        "category": "Dealer KRO",
        "date": "00/00/00",
        "city": "Lagos"
    },
    {
        "id": "514",
        "name": "KAUYOJES OIL AND GAS",
        "address": "1/9 GIWA SHOPPING COMPLEX KINGSWAY ROAD, IKOYI",
        "lat": "6.445524",
        "lng": "3.427581",
        "phone": "",
        "category": "Dealer KRO",
        "date": "00/00/00",
        "city": "Lagos"
    },
    {
        "id": "515",
        "name": "JOYFUL HEART LTD",
        "address": "9, TESLIM STREET, ILAJE BARIGA",
        "lat": "6.53137",
        "lng": "3.382171",
        "phone": "",
        "category": "Dealer KRO",
        "date": "00/00/00",
        "city": "Lagos"
    },
    {
        "id": "516",
        "name": "ZEBRA COMMUNICATION SERVICE",
        "address": "SUIT K198, ROAD 5, IKOTA SHOPPING COMPLEX VICTORIA GARDEN CITY",
        "lat": "6.463951",
        "lng": "3.556686",
        "phone": "",
        "category": "Dealer KRO",
        "date": "00/00/00",
        "city": "Lagos"
    },
    {
        "id": "517",
        "name": "CLIAPP VENTURE",
        "address": "13, SAMUEL OMOYARA STREET, AGUDA",
        "lat": "6.495882",
        "lng": "3.342227",
        "phone": "",
        "category": "Dealer KRO",
        "date": "00/00/00",
        "city": "Lagos"
    },
    {
        "id": "518",
        "name": "SMARTDRIVE & SYSTEMS LTD",
        "address": "36, AGUNGI-AJIRAN ROAD, (DIVINE GRACE PLAZA), LEKKI",
        "lat": "6.442643",
        "lng": "3.5162",
        "phone": "",
        "category": "Dealer KRO",
        "date": "00/00/00",
        "city": "Lagos"
    },
    {
        "id": "519",
        "name": "TELENOETICA LIMITED",
        "address": "12C OKO AWO STREET, VICTORIA ISLAND",
        "lat": "6.42851",
        "lng": "3.429655",
        "phone": "",
        "category": "Dealer KRO",
        "date": "00/00/00",
        "city": "Lagos"
    },
    {
        "id": "520",
        "name": "ACMESYNERGY LIMITED",
        "address": "SUIT 14, OGIDAN SHOPPING CENTER, SANGOTEDO AJAH, LAGOS",
        "lat": "6.449505",
        "lng": "3.622903",
        "phone": "",
        "category": "Dealer KRO",
        "date": "00/00/00",
        "city": "Lagos"
    },
    {
        "id": "521",
        "name": "EMNAC COMM & APPS",
        "address": "1/2 PRAISE PLAZA ADDO ROAD LEKKI AJAH",
        "lat": "6.488127",
        "lng": "3.579364",
        "phone": "",
        "category": "Dealer KRO",
        "date": "00/00/00",
        "city": "Lagos"
    },
    {
        "id": "522",
        "name": "PHEG MARATHON VENTURES",
        "address": "SUIT F108, IKOTA SHOPPING COMPLEX LEKKI AJAH",
        "lat": "6.46931",
        "lng": "3.574405",
        "phone": "",
        "category": "Dealer KRO",
        "date": "00/00/00",
        "city": "Lagos"
    },
    {
        "id": "523",
        "name": "WURAOLA AKANDE NIG LTD",
        "address": "77, AWOLOWO ROAD IKOYI",
        "lat": "6.442059",
        "lng": "3.419295",
        "phone": "",
        "category": "Dealer KRO",
        "date": "00/00/00",
        "city": "Lagos"
    },
    {
        "id": "524",
        "name": "GLITTERINGWAY ENTERPRISES",
        "address": "4 KOFO ABAYOMI STREET VICTORIA ISLAND",
        "lat": "6.435738",
        "lng": "3.409909",
        "phone": "",
        "category": "Dealer KRO",
        "date": "00/00/00",
        "city": "Lagos"
    },
    {
        "id": "525",
        "name": "CHIEF PROPERTIES LIFE LIMITED",
        "address": "13/14 SHEGSMICK PLAZA DADORE AJAH",
        "lat": "6.504043",
        "lng": "3.601415",
        "phone": "",
        "category": "Dealer KRO",
        "date": "00/00/00",
        "city": "Lagos"
    },
    {
        "id": "526",
        "name": "RITECH",
        "address": "25 WAREHOUSE ROAD,APAPA, LAGOS.",
        "lat": "6.458145",
        "lng": "3.366647",
        "phone": "",
        "category": "Dealer KRO",
        "date": "00/00/00",
        "city": "Lagos"
    },
    {
        "id": "527",
        "name": "DIKSOLYN CONCEPT LTD",
        "address": "311 JUNCTION BY 31 ROAD FESTAC",
        "lat": "6.469354",
        "lng": "3.29085",
        "phone": "",
        "category": "Dealer KRO",
        "date": "00/00/00",
        "city": "Lagos"
    },
    {
        "id": "528",
        "name": "GREEN LINK COMMUNICATION RESOURCES",
        "address": "16, OLD OJO ROAD MAZA-MAZA AMUWO ODOFIN",
        "lat": "6.45874",
        "lng": "3.306208",
        "phone": "",
        "category": "Dealer KRO",
        "date": "00/00/00",
        "city": "Lagos"
    },
    {
        "id": "529",
        "name": "CHIELE GLOBAL INV. LTD",
        "address": "PLOT 783 AMUWO LINK ROAD, GRA",
        "lat": "6.467137",
        "lng": "3.298331",
        "phone": "",
        "category": "Dealer KRO",
        "date": "00/00/00",
        "city": "Lagos"
    },
    {
        "id": "530",
        "name": "AYOMYPO DAMMY NIG ENTERPRISES",
        "address": "12A LIVERPOOL ROAD, APAPA",
        "lat": "6.441193",
        "lng": "3.359738",
        "phone": "",
        "category": "Dealer KRO",
        "date": "00/00/00",
        "city": "Lagos"
    },
    {
        "id": "531",
        "name": "MERCIDAN VENTURES",
        "address": "2 BAALE STREET BOUNDARY, AJEGUNLE, APAPA",
        "lat": "6.455187",
        "lng": "3.350827",
        "phone": "",
        "category": "Dealer KRO",
        "date": "00/00/00",
        "city": "Lagos"
    },
    {
        "id": "532",
        "name": "TURNING FORTE VENTURES",
        "address": "33 CALCUTTA CRESENT, APAPA, LAGOS",
        "lat": "6.440129",
        "lng": "3.365142",
        "phone": "",
        "category": "Dealer KRO",
        "date": "00/00/00",
        "city": "Lagos"
    },
    {
        "id": "533",
        "name": "OPTIMAL DEVICE TECHNOLOGY LTD",
        "address": "SHOP A 53, ANAMBRA PLAZA TRADE FAIR, FESTAC",
        "lat": "6.466638",
        "lng": "3.253334",
        "phone": "",
        "category": "Dealer KRO",
        "date": "00/00/00",
        "city": "Lagos"
    },
    {
        "id": "534",
        "name": "UGOMEXI ENTERPRISE",
        "address": "8, OLASOLOYA STREET, OFF IJUGUN EGBA, STATELLITE TOWN",
        "location": "STATELLITE TOWN",
        "lat": "6.446003",
        "lng": "3.261216",
        "phone": "",
        "category": "Dealer KRO",
        "date": "00/00/00",
        "city": "Lagos"
    },
    {
        "id": "535",
        "name": "ROYAL TREAT PHARMACY",
        "address": "1ST AVENUE FESTAC TOWN",
        "lat": "6.470806",
        "lng": "3.295703",
        "phone": "",
        "category": "Dealer KRO",
        "date": "00/00/00",
        "city": "Lagos"
    },
    {
        "id": "536",
        "name": "ANGELUS COMMUNICATION",
        "address": "3, SHIABU STREET, MAZA-MAZA",
        "lat": "6.460337",
        "lng": "3.303827",
        "phone": "",
        "category": "Dealer KRO",
        "date": "00/00/00",
        "city": "Lagos"
    },
    {
        "id": "537",
        "name": "DEEMONEYCARLO NIGERIA LIMITED",
        "address": "21, ROAD D1 HOUSE 9 FESTAC TOWN",
        "lat": "6.47473",
        "lng": "3.289645",
        "phone": "",
        "category": "Dealer KRO",
        "date": "00/00/00",
        "city": "Lagos"
    },
    {
        "id": "538",
        "name": "ASHAMA TALK LINK",
        "address": "9, OLOJO DRIVE OJO ALABA",
        "lat": "6.459559",
        "lng": "3.200627",
        "phone": "",
        "category": "Dealer KRO",
        "date": "00/00/00",
        "city": "Lagos"
    },
    {
        "id": "539",
        "name": "JOY PLUS CONNECT VENTURES",
        "address": "129, OLOJO DRIVE ROAD, OJO",
        "lat": "6.457982",
        "lng": "3.203443",
        "phone": "",
        "category": "Dealer KRO",
        "date": "00/00/00",
        "city": "Lagos"
    },
    {
        "id": "540",
        "name": "ROISHADE FRONTLINE LIMITED",
        "address": "3, AJEWANIWA IMUDE ROAD EKUNPA OJO ",
        "lat": "6.471056",
        "lng": "3.149882",
        "phone": "",
        "category": "Dealer KRO",
        "date": "00/00/00",
        "city": "Lagos"
    },
    {
        "id": "541",
        "name": "Mount gilgat",
        "address": "BLOCK A4, SUITE 2, OLUGBEDE MODEL MARKET, GSM VILLAGE, EGBEDA, LAGOS.",
        "lat": "6.591574",
        "lng": "3.291062",
        "phone": "",
        "category": "Dealer KRO",
        "date": "00/00/00",
        "city": "Lagos"
    },
    {
        "id": "542",
        "name": "MIKKY VENTURES",
        "address": "189, Abeokute Exp-way Iyana ipaja, Lagos.",
        "lat": "6.619561",
        "lng": "3.30048",
        "phone": "",
        "category": "Dealer KRO",
        "date": "00/00/00",
        "city": "Lagos"
    },
    {
        "id": "543",
        "name": "MIKKY VENTURES",
        "address": "15 NEW IPAJA ROAD, IYANA IPAJA, LAGOS.",
        "lat": "6.618895",
        "lng": "3.299861",
        "phone": "",
        "category": "Dealer KRO",
        "date": "00/00/00",
        "city": "Lagos"
    },
    {
        "id": "544",
        "name": "MIKKY VENTURES",
        "address": "7A NEW IPAJA ROAD, IYANA IPAJA, LAGOS.",
        "lat": "6.619416",
        "lng": "3.300744",
        "phone": "",
        "category": "Dealer KRO",
        "date": "00/00/00",
        "city": "Lagos"
    },
    {
        "id": "545",
        "name": "FIBRE PATH LTD",
        "address": " 205, AKOWONJO ROUND ABOUT, AKOWONJO,  EGBEDA, LAGOS.",
        "lat": "6.600693",
        "lng": "3.300757",
        "phone": "",
        "category": "Dealer KRO",
        "date": "00/00/00",
        "city": "Lagos"
    },
    {
        "id": "546",
        "name": "FIBRE PATH LTD",
        "address": "GOD FIRST PLAZA, 20 OLUADE WAY, EGBE BUSTOP, JAKANDE GATE, ISOLO, LAGOS.",
        "lat": "6.529856",
        "lng": "3.30946",
        "phone": "",
        "category": "Dealer KRO",
        "date": "00/00/00",
        "city": "Lagos"
    },
    {
        "id": "547",
        "name": "RUNWELL GLOBAL SERVICES",
        "address": "SHOP E6/D6 44 ADEBISI AWOSOGA STREET, AGEGE, LAGOS.",
        "lat": "6.611615",
        "lng": "3.317331",
        "phone": "",
        "category": "Dealer KRO",
        "date": "00/00/00",
        "city": "Lagos"
    }
]
